stop_id,stop_code,platform_code,stop_name,stop_desc,stop_lat,stop_lon,zone_id,stop_url,location_type,parent_station,stop_timezone,position,direction,wheelchair_boarding
2328252,3531,,TOBIAS BOLAND AT SAMS CLUB,,42.23055,-71.78702,,http://bustracker.therta.com/bustime/eta/eta.jsp?route=11&id=3531&showAllBusses=on,0,,America/New_York,,,0
2328253,3532,,TOBIAS BOLAND AND BLACKSTONE RIVER ROAD,,42.22811,-71.7869,,http://bustracker.therta.com/bustime/eta/eta.jsp?route=11&id=3532&showAllBusses=on,0,,America/New_York,,,0
2328254,3535,,BLACKSTONE RIVER ROAD + IMPERIAL DIST,,42.22881,-71.78909,,http://bustracker.therta.com/bustime/eta/eta.jsp?route=11&id=3535&showAllBusses=on,0,,America/New_York,,,0
2328283,3533,,TOBIAS BOLAND AND BLACKSTONE RIVER ROAD,,42.22812,-71.78672,,http://bustracker.therta.com/bustime/eta/eta.jsp?route=11&id=3533&showAllBusses=on,0,,America/New_York,,,0
2328331,3530,,UNION STATION GARAGE FRANKLIN ST,,42.260203,-71.79518,,http://bustracker.therta.com/bustime/eta/eta.jsp?route=40&id=3530&showAllBusses=on,0,,America/New_York,,,0
2335918,3537,,PROVIDENCE ST + KOPING ST,,42.24262898,-71.79103576,,http://bustracker.therta.com/bustime/eta/eta.jsp?route=1&id=3537&showAllBusses=on,0,,America/New_York,,,0
2335919,3538,,PROVIDENCE ST + SHINE POOL,,42.24410287,-71.79135492,,http://bustracker.therta.com/bustime/eta/eta.jsp?route=1&id=3538&showAllBusses=on,0,,America/New_York,,,0
2335920,3539,,PROVIDENCE ST + AMES ST,,42.24210302,-71.79124368,,http://bustracker.therta.com/bustime/eta/eta.jsp?route=1&id=3539&showAllBusses=on,0,,America/New_York,,,0
2335921,3540,,PROVIDENCE ST + SHINE POOL,,42.24415597,-71.79154752,,http://bustracker.therta.com/bustime/eta/eta.jsp?route=1&id=3540&showAllBusses=on,0,,America/New_York,,,0
2335922,3541,,WINTHROP ST + GRANITE ST,,42.24809162,-71.79068812,,http://bustracker.therta.com/bustime/eta/eta.jsp?route=1&id=3541&showAllBusses=on,0,,America/New_York,,,0
2335923,3542,,HEYWOOD ST + JONES ST,,42.2484139,-71.78804454,,http://bustracker.therta.com/bustime/eta/eta.jsp?route=1&id=3542&showAllBusses=on,0,,America/New_York,,,0
2335924,3543,,HEYWOOD ST + HOUGHTON ST,,42.24789574,-71.78448742,,http://bustracker.therta.com/bustime/eta/eta.jsp?route=1&id=3543&showAllBusses=on,0,,America/New_York,,,0
2335925,3544,,HEYWOOD ST + SAMOSET RD,,42.24938917,-71.7801778,,http://bustracker.therta.com/bustime/eta/eta.jsp?route=1&id=3544&showAllBusses=on,0,,America/New_York,,,0
2335926,3545,,HEYWOOD ST + SAMOSET RD,,42.24949016,-71.78027844,,http://bustracker.therta.com/bustime/eta/eta.jsp?route=1&id=3545&showAllBusses=on,0,,America/New_York,,,0
2335927,3546,,HEYWOOD ST + HOUGHTON ST,,42.24817192,-71.78358293,,http://bustracker.therta.com/bustime/eta/eta.jsp?route=1&id=3546&showAllBusses=on,0,,America/New_York,,,0
2335928,3547,,HEYWOOD ST + VALE ST,,42.24860879,-71.7875084,,http://bustracker.therta.com/bustime/eta/eta.jsp?route=1&id=3547&showAllBusses=on,0,,America/New_York,,,0
2335929,3548,,HEYWOOD ST + GRANITE ST,,42.24820284,-71.79027183,,http://bustracker.therta.com/bustime/eta/eta.jsp?route=1&id=3548&showAllBusses=on,0,,America/New_York,,,0
2335930,3549,,ELM ST + CHESTNUT ST,,42.26519158,-71.80463456,,http://bustracker.therta.com/bustime/eta/eta.jsp?route=31&id=3549&showAllBusses=on,0,,America/New_York,,,0
2335931,3550,,ELM ST + LINDEN ST,,42.26533932,-71.80640553,,http://bustracker.therta.com/bustime/eta/eta.jsp?route=31&id=3550&showAllBusses=on,0,,America/New_York,,,0
2335932,3551,,ELM ST + WEST ST,,42.26556101,-71.80877465,,http://bustracker.therta.com/bustime/eta/eta.jsp?route=31&id=3551&showAllBusses=on,0,,America/New_York,,,0
2335933,3552,,ELM ST + FRUIT ST,,42.26576937,-71.81100774,,http://bustracker.therta.com/bustime/eta/eta.jsp?route=31&id=3552&showAllBusses=on,0,,America/New_York,,,0
2335934,3553,,ELM ST + RUSSELL ST,,42.26620675,-71.8157082,,http://bustracker.therta.com/bustime/eta/eta.jsp?route=31&id=3553&showAllBusses=on,0,,America/New_York,,,0
2335935,3554,,ELM ST + PARK AVE,,42.26627728,-71.81777388,,http://bustracker.therta.com/bustime/eta/eta.jsp?route=31&id=3554&showAllBusses=on,0,,America/New_York,,,0
2335936,3555,,ELM ST + RUSSELL ST,,42.26609004,-71.81570761,,http://bustracker.therta.com/bustime/eta/eta.jsp?route=31&id=3555&showAllBusses=on,0,,America/New_York,,,0
2335937,3556,,ELM ST + FRUIT ST,,42.26564807,-71.8109398,,http://bustracker.therta.com/bustime/eta/eta.jsp?route=31&id=3556&showAllBusses=on,0,,America/New_York,,,0
2335938,3557,,ELM ST + WEST ST,,42.26544198,-71.80874841,,http://bustracker.therta.com/bustime/eta/eta.jsp?route=31&id=3557&showAllBusses=on,0,,America/New_York,,,0
2335939,3558,,ELM ST + LINCOLN ST,,42.26522202,-71.8063838,,http://bustracker.therta.com/bustime/eta/eta.jsp?route=31&id=3558&showAllBusses=on,0,,America/New_York,,,0
2335940,3559,,PARK AVE + HIGHLAND ST,,42.27023122,-71.81636168,,http://bustracker.therta.com/bustime/eta/eta.jsp?route=31&id=3559&showAllBusses=on,0,,America/New_York,,,0
2335941,3560,,PARK AVE + RUSSELL ST,,42.27215512,-71.81448538,,http://bustracker.therta.com/bustime/eta/eta.jsp?route=31&id=3560&showAllBusses=on,0,,America/New_York,,,0
2335942,3561,,PARK AVE + RUSSELL ST,,42.27228322,-71.81467845,,http://bustracker.therta.com/bustime/eta/eta.jsp?route=31&id=3561&showAllBusses=on,0,,America/New_York,,,0
2371005,3562,,WRTA GARAGE,,42.248022,-71.803913,,http://bustracker.therta.com/bustime/eta/eta.jsp?route=4&id=3562&showAllBusses=on,0,,America/New_York,,,0
2371006,3567,,NORTH MAIN + CANAL,,42.19348,-71.7611,,http://bustracker.therta.com/bustime/eta/eta.jsp?route=4&id=3567&showAllBusses=on,0,,America/New_York,,,0
2371007,3568,,CANAL + HOWE AVE,,42.19338,-71.7593,,http://bustracker.therta.com/bustime/eta/eta.jsp?route=4&id=3568&showAllBusses=on,0,,America/New_York,,,0
2371008,3569,,CANAL + ELM ST,,42.19284,-71.7574,,http://bustracker.therta.com/bustime/eta/eta.jsp?route=4&id=3569&showAllBusses=on,0,,America/New_York,,,0
2371016,3570,,MILBURY CENTER,,42.191263,-71.760277,,http://bustracker.therta.com/bustime/eta/eta.jsp?route=4&id=3570&showAllBusses=on,0,,America/New_York,,,0
2371017,3571,,CANAL + ELM ST,,42.19299,-71.7574,,http://bustracker.therta.com/bustime/eta/eta.jsp?route=4&id=3571&showAllBusses=on,0,,America/New_York,,,0
2371018,3572,,CANAL + HOWE AVE,,42.19348,-71.7592,,http://bustracker.therta.com/bustime/eta/eta.jsp?route=4&id=3572&showAllBusses=on,0,,America/New_York,,,0
2371019,3573,,NORTH MAIN + CANAL,,42.19366,-71.7612,,http://bustracker.therta.com/bustime/eta/eta.jsp?route=4&id=3573&showAllBusses=on,0,,America/New_York,,,0
2383127,3580,,HOPE AVE + SOUTHBRIDGE ST,,42.231831,-71.819391,,http://bustracker.therta.com/bustime/eta/eta.jsp?route=25&id=3580&showAllBusses=on,0,,America/New_York,,,0
2383128,474,,HOPE AVE + 7 HILLS,,42.232105,-71.825937,,http://bustracker.therta.com/bustime/eta/eta.jsp?route=25&id=474&showAllBusses=on,0,,America/New_York,,,0
2383129,3575,,HOPE AVE + WEBSTER ST,,42.232095,-71.832489,,http://bustracker.therta.com/bustime/eta/eta.jsp?route=25&id=3575&showAllBusses=on,0,,America/New_York,,,0
2383130,3581,,ENTERING AUBURN,,42.228581,-71.835258,,http://bustracker.therta.com/bustime/eta/eta.jsp?route=25&id=3581&showAllBusses=on,0,,America/New_York,,,0
2383131,3563,,EDWARD ST + EARLE ST,,42.271207,-71.792271,,http://bustracker.therta.com/bustime/eta/eta.jsp?route=40&id=3563&showAllBusses=on,0,,America/New_York,,,0
2383132,3564,,EDWARD ST + GLEN ST,,42.26975,-71.792271,,http://bustracker.therta.com/bustime/eta/eta.jsp?route=40&id=3564&showAllBusses=on,0,,America/New_York,,,0
2383133,3565,,LAUREL ST + I290 BRIDGE,,42.268781,-71.793069,,http://bustracker.therta.com/bustime/eta/eta.jsp?route=40&id=3565&showAllBusses=on,0,,America/New_York,,,0
2383134,3566,,PLUMLEY VILLAGE CENTER,,42.269157,-71.795328,,http://bustracker.therta.com/bustime/eta/eta.jsp?route=40&id=3566&showAllBusses=on,0,,America/New_York,,,0
2383135,3574,,SALEM ST AT MAIN LIBRARY,,42.260452,-71.800602,,http://bustracker.therta.com/bustime/eta/eta.jsp?route=40&id=3574&showAllBusses=on,0,,America/New_York,,,0
2383136,3582,,LAKEWAY COMMONS OUTBOUND,,42.276185,-71.747334,,http://bustracker.therta.com/bustime/eta/eta.jsp?route=15&id=3582&showAllBusses=on,0,,America/New_York,,,0
2383137,3583,,LAKEWAY COMMONS INBOUND,,42.276328273027,-71.747649360179,,http://bustracker.therta.com/bustime/eta/eta.jsp?route=15&id=3583&showAllBusses=on,0,,America/New_York,,,0
2484288,3584,,BLITHEWOOD AVE + GRAFTON ST,,42.23652,-71.75216,,http://bustracker.therta.com/bustime/eta/eta.jsp?route=5&id=3584&showAllBusses=on,0,,America/New_York,,,0
2484289,3585,,BLITHEWOOD AVE + OAKWOOD LANE,,42.23560838,-71.75621833,,http://bustracker.therta.com/bustime/eta/eta.jsp?route=5&id=3585&showAllBusses=on,0,,America/New_York,,,0
2484290,3586,,BLITHEWOOD AVE + HICKORY HILL,,42.23600866,-71.76124938,,http://bustracker.therta.com/bustime/eta/eta.jsp?route=5&id=3586&showAllBusses=on,0,,America/New_York,,,0
2484291,3587,,BLITHEWOOD AVE + OPP HICKORY HILL,,42.23585553,-71.76134106,,http://bustracker.therta.com/bustime/eta/eta.jsp?route=5&id=3587&showAllBusses=on,0,,America/New_York,,,0
2484292,3588,,BLITHEWOOD AVE + OPP OAKWOOD LANE,,42.23549653,-71.75638521,,http://bustracker.therta.com/bustime/eta/eta.jsp?route=5&id=3588&showAllBusses=on,0,,America/New_York,,,0
2484293,3589,,FRANKLIN ST + ARCTIC ST,,42.26031728,-71.7923732,,http://bustracker.therta.com/bustime/eta/eta.jsp?route=3&id=3589&showAllBusses=on,0,,America/New_York,,,0
2484294,3590,,FRANKLIN ST + NORFOLK ST,,42.26065907,-71.78681608,,http://bustracker.therta.com/bustime/eta/eta.jsp?route=3&id=3590&showAllBusses=on,0,,America/New_York,,,0
2484295,3591,,FRANKLIN ST + VILLANOVA ST,,42.2668652,-71.77674994,,http://bustracker.therta.com/bustime/eta/eta.jsp?route=3&id=3591&showAllBusses=on,0,,America/New_York,,,0
2484296,3592,,FRANKLIN ST + PLANTATION ST,,42.26733277,-71.77422641,,http://bustracker.therta.com/bustime/eta/eta.jsp?route=3&id=3592&showAllBusses=on,0,,America/New_York,,,0
2484297,3593,,FRANKLIN ST + PLANTATION ST,,42.26738834,-71.77464758,,http://bustracker.therta.com/bustime/eta/eta.jsp?route=3&id=3593&showAllBusses=on,0,,America/New_York,,,0
2484298,3594,,FRANKLIN ST + OPP VILLANOVA ST,,42.26701266,-71.77659777,,http://bustracker.therta.com/bustime/eta/eta.jsp?route=3&id=3594&showAllBusses=on,0,,America/New_York,,,0
2484299,3595,,FRANKLIN ST + 375 FRANKLIN ST,,42.26079296,-71.78695281,,http://bustracker.therta.com/bustime/eta/eta.jsp?route=3&id=3595&showAllBusses=on,0,,America/New_York,,,0
2484300,3596,,FRANKLIN ST + PLASTIC ST,,42.26043262,-71.79155926,,http://bustracker.therta.com/bustime/eta/eta.jsp?route=3&id=3596&showAllBusses=on,0,,America/New_York,,,0
2484301,3597,,GRANITE ST + WINTHROP ST,,42.24765696,-71.79025537,,http://bustracker.therta.com/bustime/eta/eta.jsp?route=1&id=3597&showAllBusses=on,0,,America/New_York,,,0
2484302,3598,,GRANITE ST + OPP WABASH AVE,,42.24749753,-71.78999816,,http://bustracker.therta.com/bustime/eta/eta.jsp?route=1&id=3598&showAllBusses=on,0,,America/New_York,,,0
2484303,3599,,HARRINGTON WAY + RAPHAEL ST,,42.26611678,-71.77071526,,http://bustracker.therta.com/bustime/eta/eta.jsp?route=3&id=3599&showAllBusses=on,0,,America/New_York,,,0
2484304,3600,,HARRINGTON WAY + OPP ECOTARIUM,,42.26436287,-71.76962157,,http://bustracker.therta.com/bustime/eta/eta.jsp?route=3&id=3600&showAllBusses=on,0,,America/New_York,,,0
2484305,3601,,HARRINGTON WAY + ECOTARIUM,,42.26431588,-71.76934236,,http://bustracker.therta.com/bustime/eta/eta.jsp?route=3&id=3601&showAllBusses=on,0,,America/New_York,,,0
2484306,3602,,HARRINGTON WAY + HARRINGTON FIELD,,42.26616483,-71.77054309,,http://bustracker.therta.com/bustime/eta/eta.jsp?route=3&id=3602&showAllBusses=on,0,,America/New_York,,,0
2484307,3603,,NORTH HIGH SCHOOL,,42.26148974,-71.76672003,,http://bustracker.therta.com/bustime/eta/eta.jsp?route=3&id=3603&showAllBusses=on,0,,America/New_York,,,0
2536294,3631,,Worcester Senior Ctr - Driveway,,42.247935,-71.79298,,,0,,America/New_York,,,0
2537586,699,,MAY ST + MANOR ST,,42.2634438979326,-71.8368266282002,,,0,,America/New_York,,,0
2537587,3534,,BLACKSTONE RIVER ROAD + IMPERIAL DIST,,42.2287770207056,-71.7892403336366,,,0,,America/New_York,,,0
2537588,3100,,Rt 20 Entering Auburn,,42.212651,-71.798877,,,0,,America/New_York,,,0
2537589,594,,Main St at Chatham,,42.2616241298813,-71.8032244063502,,,0,,America/New_York,,,0
2537590,724,,Mill St at Second,,42.255684,-71.846862,,,0,,America/New_York,,,0
2537615,3605,,WEST BOYLSTON DR + MASS LOTTERY,,42.29977849,-71.80301643,,,0,,America/New_York,,,0
2537616,3620,,CAMBRIDGE ST + EXETER ST,,42.24349746,-71.8250281,,,0,,America/New_York,,,0
2537617,3604,,NEPONSET STREET + RELIANT MEDICAL,,42.29811383,-71.80196565,,,0,,America/New_York,,,0
2537618,3628,,MAIN ST + HAMILTON ST OB,,42.08060171,-72.04414206,,,0,,America/New_York,,,0
2537620,3629,,MAIN ST + SAYLES ST IB,,42.08047565,-72.04307895,,,0,,America/New_York,,,0
2537621,3612,,PARK AVE + TOWNSEND ST,,42.26480569,-71.81892726,,,0,,America/New_York,,,0
2537622,3606,,PARK AVE + OPP TOWNSEND ST,,42.26477633,-71.81920612,,,0,,America/New_York,,,0
2537623,3619,,CAMBRIDGE ST + PRICE CHOPPER,,42.24401786,-71.82898814,,,0,,America/New_York,,,0
2537624,3623,,CAMBRIDGE ST + NIXON AVE,,42.2447619,-71.83068731,,,0,,America/New_York,,,0
2537625,3611,,666 PARK AVE,,42.24539126,-71.83585974,,,0,,America/New_York,,,0
2537626,3613,,PARK AVE + CHANDLER ST,,42.26121816,-71.82069538,,,0,,America/New_York,,,0
2537627,3622,,CAMBRIDGE ST + SALVATION ARMY,,42.24404249,-71.82837017,,,0,,America/New_York,,,0
2537628,3610,,PARK AVE + MILL ST,,42.24707341,-71.83408608,,,0,,America/New_York,,,0
2537629,3608,,PARK AVE + PARKER ST,,42.25890329,-71.82221966,,,0,,America/New_York,,,0
2537631,3618,,CAMBRIDGE ST + WEBSTER SQ,,42.24476281,-71.83103099,,,0,,America/New_York,,,0
2537632,3626,,BIG BUNNY SUPERMARKET,,42.08238833,-72.04734634,,,0,,America/New_York,,,0
2537633,3617,,661 PARK AVENUE,,42.24505377,-71.83585872,,,0,,America/New_York,,,0
2537634,3627,,MAIN ST + PINE ST OB,,42.07787172,-72.03872468,,,0,,America/New_York,,,0
2537635,3607,,PARK AVE + CHANDLER ST ,,42.26124841,-71.82094887,,,0,,America/New_York,,,0
2537637,3609,,PARK AVE + BEAVER BROOK PKWY,,42.25023576,-71.83115302,,,0,,America/New_York,,,0
2537638,3616,,PARK AVE + MILL ST,,42.24687609,-71.83395039,,,0,,America/New_York,,,0
2537639,3615,,PARK AVE + BEAVER ST,,42.2497994,-71.83130464,,,0,,America/New_York,,,0
2537640,3621,,CAMBRIDGE ST + FREELAND ST,,42.24378854,-71.8245269,,,0,,America/New_York,,,0
2537641,3630,,MAIN ST + SOUTH ST IB,,42.0776605,-72.03817056,,,0,,America/New_York,,,0
2537642,3614,,PARK AVE + PARKER ST,,42.25902099,-71.82187073,,,0,,America/New_York,,,0
2537643,,,OPPOSITE CITY HALL + FRONT ST,,42.2632371866096,-71.8016564203242,,,0,,America/New_York,,,0
820832,3013,,PARK AVE STOP,,42.28399,-71.80818,,http://bustracker.therta.com/bustime/eta/eta.jsp?route=31&id=3013&showAllBusses=on,0,,America/New_York,,,0
820833,380,,GROVE ST + GLENNIE ST,,42.2844,-71.80756,,http://bustracker.therta.com/bustime/eta/eta.jsp?route=30&id=380&showAllBusses=on,0,,America/New_York,,,0
820834,381,,GROVE ST + WRTA OFFICES,,42.28226,-71.80628,,http://bustracker.therta.com/bustime/eta/eta.jsp?route=30&id=381&showAllBusses=on,0,,America/New_York,,,0
820835,329,,GRANITE ST + ST ANNES,,42.24345,-71.78388,,http://bustracker.therta.com/bustime/eta/eta.jsp?route=1&id=329&showAllBusses=on,0,,America/New_York,,,0
820836,328,,GRANITE ST + HOLY NAME,,42.24433,-71.78455,,http://bustracker.therta.com/bustime/eta/eta.jsp?route=1&id=328&showAllBusses=on,0,,America/New_York,,,0
820837,325,,GRANITE ST + BRIDGEPORT ST,,42.24565,-71.78636,,http://bustracker.therta.com/bustime/eta/eta.jsp?route=1&id=325&showAllBusses=on,0,,America/New_York,,,0
820838,326,,GRANITE ST + STOWELL ST,,42.24629,-71.78767,,http://bustracker.therta.com/bustime/eta/eta.jsp?route=1&id=326&showAllBusses=on,0,,America/New_York,,,0
820839,327,,GRANITE ST + JONES ST,,42.24677,-71.78866,,http://bustracker.therta.com/bustime/eta/eta.jsp?route=1&id=327&showAllBusses=on,0,,America/New_York,,,0
820841,466,,HOLCOMBE ST + PROVIDENCE ST,,42.24614,-71.79163,,http://bustracker.therta.com/bustime/eta/eta.jsp?route=1&id=466&showAllBusses=on,0,,America/New_York,,,0
820843,897,,PROVIDENCE ST + SPURR ST,,42.24785,-71.79224,,http://bustracker.therta.com/bustime/eta/eta.jsp?route=1&id=897&showAllBusses=on,0,,America/New_York,,,0
820847,902,,PROVIDENCE ST + AETNA ST,,42.25317,-71.79261,,http://bustracker.therta.com/bustime/eta/eta.jsp?route=1&id=902&showAllBusses=on,0,,America/New_York,,,0
820848,903,,PROVIDENCE ST + WAVERLY ST,,42.25592,-71.79295,,http://bustracker.therta.com/bustime/eta/eta.jsp?route=1&id=903&showAllBusses=on,0,,America/New_York,,,0
820849,298,,GRAFTON ST + FRANKLIN ST,,42.2600103716186,-71.7936011837674,,http://bustracker.therta.com/bustime/eta/eta.jsp?route=16&id=298&showAllBusses=on,0,,America/New_York,,,0
820850,243,,FRANKLIN ST + CITY HALL,,42.26178,-71.80149,,http://bustracker.therta.com/bustime/eta/eta.jsp?route=40&id=243&showAllBusses=on,0,,America/New_York,,,0
820851,246,,FRONT ST + CITY HALL,,42.263119047513,-71.801734474702,,http://bustracker.therta.com/bustime/eta/eta.jsp?route=19&id=246&showAllBusses=on,0,,America/New_York,,,0
820853,238,,FOSTER ST + UNION STATION,,42.2626691195928,-71.7962717004253,,http://bustracker.therta.com/bustime/eta/eta.jsp?route=26&id=238&showAllBusses=on,0,,America/New_York,,,0
820854,272,,GRAFTON ST + TEMPLE ST,,42.25975,-71.79382,,http://bustracker.therta.com/bustime/eta/eta.jsp?route=16&id=272&showAllBusses=on,0,,America/New_York,,,0
820855,888,,PROVIDENCE ST + JEFFERSON ST,,42.25341,-71.79275,,http://bustracker.therta.com/bustime/eta/eta.jsp?route=1&id=888&showAllBusses=on,0,,America/New_York,,,0
820856,889,,PROVIDENCE ST + PATTISON ST,,42.25231,-71.79267,,http://bustracker.therta.com/bustime/eta/eta.jsp?route=1&id=889&showAllBusses=on,0,,America/New_York,,,0
820860,893,,PROVIDENCE ST + WORCESTER SENIOR CENTER,,42.24783,-71.79234,,http://bustracker.therta.com/bustime/eta/eta.jsp?route=1&id=893&showAllBusses=on,0,,America/New_York,,,0
820861,894,,133 PROVIDENCE ST,,42.24654,-71.79204,,http://bustracker.therta.com/bustime/eta/eta.jsp?route=1&id=894&showAllBusses=on,0,,America/New_York,,,0
820863,464,,HOLCOMBE ST + WABASH AVE,,42.24625,-71.78998,,http://bustracker.therta.com/bustime/eta/eta.jsp?route=1&id=464&showAllBusses=on,0,,America/New_York,,,0
820864,320,,GRANITE ST + HOLCOMBE ST,,42.24667,-71.78857,,http://bustracker.therta.com/bustime/eta/eta.jsp?route=1&id=320&showAllBusses=on,0,,America/New_York,,,0
820865,321,,GRANITE ST + DILLON ST,,42.24621,-71.78762,,http://bustracker.therta.com/bustime/eta/eta.jsp?route=1&id=321&showAllBusses=on,0,,America/New_York,,,0
820866,322,,GRANITE ST + BRIDGEPORT ST,,42.24563,-71.78647,,http://bustracker.therta.com/bustime/eta/eta.jsp?route=1&id=322&showAllBusses=on,0,,America/New_York,,,0
820867,323,,GRANITE ST + GRANITE STREET SCHOOL,,42.24476,-71.78485,,http://bustracker.therta.com/bustime/eta/eta.jsp?route=1&id=323&showAllBusses=on,0,,America/New_York,,,0
820868,324,,GRANITE ST + HOLY NAME,,42.24329,-71.78402,,http://bustracker.therta.com/bustime/eta/eta.jsp?route=1&id=324&showAllBusses=on,0,,America/New_York,,,0
820869,353,,GREENWOOD ST + FAIR PLAZA SHELTER,,42.21406,-71.79585,,http://bustracker.therta.com/bustime/eta/eta.jsp?route=11&id=353&showAllBusses=on,0,,America/New_York,,,0
820870,354,,GREENWOOD ST + ARNOLD RD,,42.21513,-71.7959,,http://bustracker.therta.com/bustime/eta/eta.jsp?route=11&id=354&showAllBusses=on,0,,America/New_York,,,0
820871,356,,327 GREENWOOD ST,,42.21696,-71.79629,,http://bustracker.therta.com/bustime/eta/eta.jsp?route=11&id=356&showAllBusses=on,0,,America/New_York,,,0
820872,357,,GREENWOOD ST + RYBERG TER,,42.2185,-71.79663,,http://bustracker.therta.com/bustime/eta/eta.jsp?route=11&id=357&showAllBusses=on,0,,America/New_York,,,0
820873,358,,GREENWOOD ST + CONWAY ST,,42.21937,-71.79664,,http://bustracker.therta.com/bustime/eta/eta.jsp?route=11&id=358&showAllBusses=on,0,,America/New_York,,,0
820874,359,,GREENWOOD ST + SOUTHOLD RD,,42.22065,-71.79666,,http://bustracker.therta.com/bustime/eta/eta.jsp?route=11&id=359&showAllBusses=on,0,,America/New_York,,,0
820876,1187,,SPOFFORD RD + BROUGHTON RD,,42.22085,-71.79962,,http://bustracker.therta.com/bustime/eta/eta.jsp?route=11&id=1187&showAllBusses=on,0,,America/New_York,,,0
820877,1039,,UPLAND GARDEN DR + AUTUMN WOODS,,42.22058,-71.80343,,http://bustracker.therta.com/bustime/eta/eta.jsp?route=11&id=1039&showAllBusses=on,0,,America/New_York,,,0
820878,1040,,36 UPLAND GARDEN DR,,42.22159,-71.8037,,http://bustracker.therta.com/bustime/eta/eta.jsp?route=11&id=1040&showAllBusses=on,0,,America/New_York,,,0
820879,1041,,22 UPLAND GARDEN DR,,42.22247,-71.80403,,http://bustracker.therta.com/bustime/eta/eta.jsp?route=11&id=1041&showAllBusses=on,0,,America/New_York,,,0
820880,1042,,UPLAND GARDEN DR + AUTUMN WOODS,,42.22327,-71.80478,,http://bustracker.therta.com/bustime/eta/eta.jsp?route=11&id=1042&showAllBusses=on,0,,America/New_York,,,0
820881,1043,,65 UPLAND ST,,42.2241453241056,-71.8027559141493,,http://bustracker.therta.com/bustime/eta/eta.jsp?route=11&id=1043&showAllBusses=on,0,,America/New_York,,,0
820882,1044,,UPLAND ST + HARWICH ST,,42.22357,-71.80037,,http://bustracker.therta.com/bustime/eta/eta.jsp?route=11&id=1044&showAllBusses=on,0,,America/New_York,,,0
820883,1046,,UPLAND ST + MALLARD RD,,42.2233112082343,-71.7995971826695,,http://bustracker.therta.com/bustime/eta/eta.jsp?route=11&id=1046&showAllBusses=on,0,,America/New_York,,,0
820884,1045,,UPLAND ST + EMMANUEL,,42.2235934346674,-71.7972603258568,,http://bustracker.therta.com/bustime/eta/eta.jsp?route=11&id=1045&showAllBusses=on,0,,America/New_York,,,0
820886,362,,187 GREENWOOD ST,,42.2245,-71.7952,,http://bustracker.therta.com/bustime/eta/eta.jsp?route=11&id=362&showAllBusses=on,0,,America/New_York,,,0
820887,363,,GREENWOOD ST + FORSBERG ST,,42.22603,-71.79365,,http://bustracker.therta.com/bustime/eta/eta.jsp?route=11&id=363&showAllBusses=on,0,,America/New_York,,,0
820888,364,,127 GREENWOOD ST,,42.22713,-71.79297,,http://bustracker.therta.com/bustime/eta/eta.jsp?route=11&id=364&showAllBusses=on,0,,America/New_York,,,0
820889,365,,GREENWOOD ST + TATMAN ST,,42.22863,-71.79291,,http://bustracker.therta.com/bustime/eta/eta.jsp?route=11&id=365&showAllBusses=on,0,,America/New_York,,,0
820890,366,,GREENWOOD ST + KOSTA ST,,42.23006,-71.7931,,http://bustracker.therta.com/bustime/eta/eta.jsp?route=11&id=366&showAllBusses=on,0,,America/New_York,,,0
820891,367,,GREENWOOD ST + EKMAN ST,,42.23126,-71.79353,,http://bustracker.therta.com/bustime/eta/eta.jsp?route=11&id=367&showAllBusses=on,0,,America/New_York,,,0
820892,42,,BLACKSTONE RIVER RD + WHIPPLE ST,,42.23242,-71.79438,,http://bustracker.therta.com/bustime/eta/eta.jsp?route=11&id=42&showAllBusses=on,0,,America/New_York,,,0
820893,43,,BLACKSTONE RIVER RD + FALMOUTH ST,,42.23392,-71.79552,,http://bustracker.therta.com/bustime/eta/eta.jsp?route=11&id=43&showAllBusses=on,0,,America/New_York,,,0
820894,44,,BLACKSTONE RIVER RD + MCKEON RD,,42.23497,-71.7961,,http://bustracker.therta.com/bustime/eta/eta.jsp?route=11&id=44&showAllBusses=on,0,,America/New_York,,,0
820895,1145,,ROUTE 146 + WALMART,,42.23403,-71.79038,,http://bustracker.therta.com/bustime/eta/eta.jsp?route=11&id=1145&showAllBusses=on,0,,America/New_York,,,0
820896,1144,,WALMART ROUTE 146 PARKING LOT,,42.23175,-71.78996,,http://bustracker.therta.com/bustime/eta/eta.jsp?route=11&id=1144&showAllBusses=on,0,,America/New_York,,,0
820897,904,,PROVIDENCE ST + MILLBURY ST,,42.23797,-71.79207,,http://bustracker.therta.com/bustime/eta/eta.jsp?route=11&id=904&showAllBusses=on,0,,America/New_York,,,0
820898,905,,PROVIDENCE ST + DOANE ST,,42.2401,-71.79162,,http://bustracker.therta.com/bustime/eta/eta.jsp?route=11&id=905&showAllBusses=on,0,,America/New_York,,,0
820899,896,,PROVIDENCE ST + ASTRID AVE,,42.24068,-71.79145,,http://bustracker.therta.com/bustime/eta/eta.jsp?route=11&id=896&showAllBusses=on,0,,America/New_York,,,0
820900,1051,,UPSALA ST + PROVIDENCE ST,,42.24136,-71.7917,,http://bustracker.therta.com/bustime/eta/eta.jsp?route=11&id=1051&showAllBusses=on,0,,America/New_York,,,0
820901,1052,,UPSALA ST + ESTHER ST,,42.24179,-71.79346,,http://bustracker.therta.com/bustime/eta/eta.jsp?route=11&id=1052&showAllBusses=on,0,,America/New_York,,,0
820902,1053,,UPSALA ST + STOCKTON ST,,42.24209,-71.79481,,http://bustracker.therta.com/bustime/eta/eta.jsp?route=11&id=1053&showAllBusses=on,0,,America/New_York,,,0
820903,1054,,UPSALA ST + VERNON ST,,42.24264,-71.79714,,http://bustracker.therta.com/bustime/eta/eta.jsp?route=11&id=1054&showAllBusses=on,0,,America/New_York,,,0
820904,1068,,VERNON ST + AMES ST,,42.2435209990972,-71.7968249145,,http://bustracker.therta.com/bustime/eta/eta.jsp?route=11&id=1068&showAllBusses=on,0,,America/New_York,,,0
820905,1069,,VERNON ST + WINDHAM ST,,42.2446762847218,-71.7960343101428,,http://bustracker.therta.com/bustime/eta/eta.jsp?route=11&id=1069&showAllBusses=on,0,,America/New_York,,,0
820907,1071,,VERNON ST + SYME ST,,42.2462216200416,-71.7948396186669,,http://bustracker.therta.com/bustime/eta/eta.jsp?route=11&id=1071&showAllBusses=on,0,,America/New_York,,,0
820908,1072,,VERNON ST + SPURR ST,,42.24778,-71.79466,,http://bustracker.therta.com/bustime/eta/eta.jsp?route=11&id=1072&showAllBusses=on,0,,America/New_York,,,0
820910,1075,,VERNON ST + SUFFIELD ST,,42.24976,-71.79474,,http://bustracker.therta.com/bustime/eta/eta.jsp?route=11&id=1075&showAllBusses=on,0,,America/New_York,,,0
820912,1263,,VERNON ST + DORCHESTER ST,,42.25146,-71.79537,,http://bustracker.therta.com/bustime/eta/eta.jsp?route=11&id=1263&showAllBusses=on,0,,America/New_York,,,0
820913,1077,,VERNON ST + PATTISON ST,,42.25245,-71.79606,,http://bustracker.therta.com/bustime/eta/eta.jsp?route=11&id=1077&showAllBusses=on,0,,America/New_York,,,0
820914,1078,,VERNON ST + JEFFERSON ST,,42.2535887065642,-71.7967872651773,,http://bustracker.therta.com/bustime/eta/eta.jsp?route=11&id=1078&showAllBusses=on,0,,America/New_York,,,0
820915,334,,GREEN ST + KELLY SQUARE,,42.25577,-71.79784,,http://bustracker.therta.com/bustime/eta/eta.jsp?route=11&id=334&showAllBusses=on,0,,America/New_York,,,0
820916,335,,GREEN ST + HARRISON ST,,42.257,-71.79793,,http://bustracker.therta.com/bustime/eta/eta.jsp?route=11&id=335&showAllBusses=on,0,,America/New_York,,,0
820917,336,,GREEN ST + GODDARD ST,,42.2581559575639,-71.7979657127861,,http://bustracker.therta.com/bustime/eta/eta.jsp?route=11&id=336&showAllBusses=on,0,,America/New_York,,,0
820918,242,,FOSTER ST + MAJOR TAYLOR BLVD,,42.2635211484135,-71.7970129015296,,http://bustracker.therta.com/bustime/eta/eta.jsp?route=30&id=242&showAllBusses=on,0,,America/New_York,,,0
820919,239,,FOSTER ST + WALDO ST,,42.26475,-71.8006,,http://bustracker.therta.com/bustime/eta/eta.jsp?route=3&id=239&showAllBusses=on,0,,America/New_York,,,0
820920,330,,GREEN ST + TEMPLE ST,,42.2593,-71.79825,,http://bustracker.therta.com/bustime/eta/eta.jsp?route=11&id=330&showAllBusses=on,0,,America/New_York,,,0
820921,332,,GREEN ST + GOLD ST,,42.25725,-71.79807,,http://bustracker.therta.com/bustime/eta/eta.jsp?route=11&id=332&showAllBusses=on,0,,America/New_York,,,0
820922,333,,GREEN ST + KELLY SQUARE,,42.25557,-71.79801,,http://bustracker.therta.com/bustime/eta/eta.jsp?route=11&id=333&showAllBusses=on,0,,America/New_York,,,0
820923,1056,,VERNON ST + PATTISON ST,,42.2524166001601,-71.7961201690856,,http://bustracker.therta.com/bustime/eta/eta.jsp?route=11&id=1056&showAllBusses=on,0,,America/New_York,,,0
820924,1057,,VERNON ST + RICHLAND ST,,42.2511418666986,-71.7953177223404,,http://bustracker.therta.com/bustime/eta/eta.jsp?route=11&id=1057&showAllBusses=on,0,,America/New_York,,,0
820925,1058,,VERNON ST + SUFFIELD ST,,42.25015,-71.79488,,http://bustracker.therta.com/bustime/eta/eta.jsp?route=11&id=1058&showAllBusses=on,0,,America/New_York,,,0
820926,1059,,VERNON ST + SEYMOUR ST,,42.2491226974637,-71.7947902719544,,http://bustracker.therta.com/bustime/eta/eta.jsp?route=11&id=1059&showAllBusses=on,0,,America/New_York,,,0
820927,1060,,VERNON ST + ALPINE ST,,42.24822,-71.79473,,http://bustracker.therta.com/bustime/eta/eta.jsp?route=11&id=1060&showAllBusses=on,0,,America/New_York,,,0
820928,1061,,VERNON ST + VIEW ST,,42.24703,-71.79478,,http://bustracker.therta.com/bustime/eta/eta.jsp?route=11&id=1061&showAllBusses=on,0,,America/New_York,,,0
820930,1063,,VERNON ST + EUCLID AVE,,42.24557,-71.79548,,http://bustracker.therta.com/bustime/eta/eta.jsp?route=11&id=1063&showAllBusses=on,0,,America/New_York,,,0
820931,1064,,VERNON ST + WINDHAM ST,,42.24493,-71.796,,http://bustracker.therta.com/bustime/eta/eta.jsp?route=11&id=1064&showAllBusses=on,0,,America/New_York,,,0
820933,1066,,VERNON ST + CARGILL AVE,,42.24367,-71.7969,,http://bustracker.therta.com/bustime/eta/eta.jsp?route=11&id=1066&showAllBusses=on,0,,America/New_York,,,0
820934,1067,,VERNON ST + UPSALA ST,,42.24271,-71.79734,,http://bustracker.therta.com/bustime/eta/eta.jsp?route=11&id=1067&showAllBusses=on,0,,America/New_York,,,0
820936,1239,,UPSALA ST + LOUISE ST,,42.2419943174382,-71.7949158142538,,http://bustracker.therta.com/bustime/eta/eta.jsp?route=11&id=1239&showAllBusses=on,0,,America/New_York,,,0
820937,1049,,UPSALA ST + ESTHER ST,,42.2416784015613,-71.7935166987297,,http://bustracker.therta.com/bustime/eta/eta.jsp?route=11&id=1049&showAllBusses=on,0,,America/New_York,,,0
820938,1050,,UPSALA ST + PROVIDENCE ST,,42.2412292190974,-71.79157539164,,http://bustracker.therta.com/bustime/eta/eta.jsp?route=11&id=1050&showAllBusses=on,0,,America/New_York,,,0
820939,884,,PROVIDENCE ST + DOANE ST,,42.2401,-71.79175,,http://bustracker.therta.com/bustime/eta/eta.jsp?route=11&id=884&showAllBusses=on,0,,America/New_York,,,0
820940,885,,PROVIDENCE ST + MILLBURY ST,,42.23799,-71.79218,,http://bustracker.therta.com/bustime/eta/eta.jsp?route=11&id=885&showAllBusses=on,0,,America/New_York,,,0
820941,38,,BLACKSTONE RIVER RD + MCKEON RD,,42.2348455466682,-71.7962333799265,,http://bustracker.therta.com/bustime/eta/eta.jsp?route=11&id=38&showAllBusses=on,0,,America/New_York,,,0
820942,40,,BLACKSTONE RIVER RD + FALMOUTH ST,,42.2335037614298,-71.7954320672764,,http://bustracker.therta.com/bustime/eta/eta.jsp?route=11&id=40&showAllBusses=on,0,,America/New_York,,,0
820943,41,,BLACKSTONE RIVER RD + WHIPPLE ST,,42.2321399854873,-71.7943971209936,,http://bustracker.therta.com/bustime/eta/eta.jsp?route=11&id=41&showAllBusses=on,0,,America/New_York,,,0
820944,338,,GREENWOOD ST + EKMAN ST,,42.2311225244353,-71.7936391039211,,http://bustracker.therta.com/bustime/eta/eta.jsp?route=11&id=338&showAllBusses=on,0,,America/New_York,,,0
820945,339,,GREENWOOD ST + KOSTA ST,,42.2296027080373,-71.7931491934472,,http://bustracker.therta.com/bustime/eta/eta.jsp?route=11&id=339&showAllBusses=on,0,,America/New_York,,,0
820946,340,,GREENWOOD ST + TATMAN ST,,42.2285286513806,-71.7930461191738,,http://bustracker.therta.com/bustime/eta/eta.jsp?route=11&id=340&showAllBusses=on,0,,America/New_York,,,0
820947,341,,137 GREENWOOD ST,,42.2272,-71.79306,,http://bustracker.therta.com/bustime/eta/eta.jsp?route=11&id=341&showAllBusses=on,0,,America/New_York,,,0
820948,342,,159 GREENWOOD ST,,42.22609,-71.79371,,http://bustracker.therta.com/bustime/eta/eta.jsp?route=11&id=342&showAllBusses=on,0,,America/New_York,,,0
820949,343,,192 GREENWOOD ST,,42.22474,-71.79504,,http://bustracker.therta.com/bustime/eta/eta.jsp?route=11&id=343&showAllBusses=on,0,,America/New_York,,,0
820950,344,,GREENWOOD ST + UPLAND ST,,42.22378,-71.7961,,http://bustracker.therta.com/bustime/eta/eta.jsp?route=11&id=344&showAllBusses=on,0,,America/New_York,,,0
820951,1036,,UPLAND ST + EMMANUEL,,42.2237,-71.79724,,http://bustracker.therta.com/bustime/eta/eta.jsp?route=11&id=1036&showAllBusses=on,0,,America/New_York,,,0
820952,1037,,UPLAND ST + MALLARD RD,,42.2234,-71.7995,,http://bustracker.therta.com/bustime/eta/eta.jsp?route=11&id=1037&showAllBusses=on,0,,America/New_York,,,0
820953,1038,,UPLAND ST + UPLAND GARDEN DR,,42.2241614860326,-71.8046444164553,,http://bustracker.therta.com/bustime/eta/eta.jsp?route=11&id=1038&showAllBusses=on,0,,America/New_York,,,0
820954,1033,,UPLAND GARDEN DR + AUTUMN WOODS,,42.2231813644194,-71.8048855062324,,http://bustracker.therta.com/bustime/eta/eta.jsp?route=11&id=1033&showAllBusses=on,0,,America/New_York,,,0
820955,1035,,36 UPLAND GARDEN DR,,42.2215327431751,-71.8037912090026,,http://bustracker.therta.com/bustime/eta/eta.jsp?route=11&id=1035&showAllBusses=on,0,,America/New_York,,,0
820956,1034,,UPLAND GARDEN DR + AUTUMN WOODS,,42.2205982153168,-71.8035186238117,,http://bustracker.therta.com/bustime/eta/eta.jsp?route=11&id=1034&showAllBusses=on,0,,America/New_York,,,0
820957,975,,SPOFFORD RD + BROUGHTON RD,,42.2207161074284,-71.7999068721309,,http://bustracker.therta.com/bustime/eta/eta.jsp?route=11&id=975&showAllBusses=on,0,,America/New_York,,,0
820958,977,,SPOFFORD RD + GREENWOOD ST,,42.2213561277815,-71.7968847996573,,http://bustracker.therta.com/bustime/eta/eta.jsp?route=11&id=977&showAllBusses=on,0,,America/New_York,,,0
820959,346,,GREENWOOD ST + SOUTHOLD RD,,42.2205,-71.79677,,http://bustracker.therta.com/bustime/eta/eta.jsp?route=11&id=346&showAllBusses=on,0,,America/New_York,,,0
820960,347,,GREENWOOD ST + CONWAY ST,,42.21967,-71.79676,,http://bustracker.therta.com/bustime/eta/eta.jsp?route=11&id=347&showAllBusses=on,0,,America/New_York,,,0
820961,348,,GREENWOOD ST + RYBERG TER,,42.2181333212333,-71.7968061602406,,http://bustracker.therta.com/bustime/eta/eta.jsp?route=11&id=348&showAllBusses=on,0,,America/New_York,,,0
820963,349,,328A GREENWOOD ST,,42.21593,-71.79615,,http://bustracker.therta.com/bustime/eta/eta.jsp?route=11&id=349&showAllBusses=on,0,,America/New_York,,,0
820964,350,,GREENWOOD ST + ARNOLD RD,,42.21514,-71.79601,,http://bustracker.therta.com/bustime/eta/eta.jsp?route=11&id=350&showAllBusses=on,0,,America/New_York,,,0
820965,351,,GREENWOOD ST + FAIR PLAZA,,42.2136,-71.79594,,http://bustracker.therta.com/bustime/eta/eta.jsp?route=11&id=351&showAllBusses=on,0,,America/New_York,,,0
820966,352,,GREENWOOD ST + RT 20,,42.21254,-71.79577,,http://bustracker.therta.com/bustime/eta/eta.jsp?route=11&id=352&showAllBusses=on,0,,America/New_York,,,0
820967,1191,,PULLMAN ST + PRICECHOPPER,,42.3239,-71.79791,,http://bustracker.therta.com/bustime/eta/eta.jsp?route=14&id=1191&showAllBusses=on,0,,America/New_York,,,0
820968,763,,MOUNTAIN ST WEST + PULLMAN ST,,42.32453170202,-71.7972949789054,,http://bustracker.therta.com/bustime/eta/eta.jsp?route=14&id=763&showAllBusses=on,0,,America/New_York,,,0
820969,764,,MOUNTAIN ST WEST + MALDEN ST,,42.3236755124743,-71.794607138368,,http://bustracker.therta.com/bustime/eta/eta.jsp?route=14&id=764&showAllBusses=on,0,,America/New_York,,,0
820970,84,,BURNCOAT ST + ASSUMPTION AVE,,42.3138857821995,-71.7896718366382,,http://bustracker.therta.com/bustime/eta/eta.jsp?route=14&id=84&showAllBusses=on,0,,America/New_York,,,0
820972,86,,BURNCOAT ST + FALES ST,,42.31174,-71.78916,,http://bustracker.therta.com/bustime/eta/eta.jsp?route=14&id=86&showAllBusses=on,0,,America/New_York,,,0
820973,87,,BURNCOAT ST + FAIRHAVEN RD,,42.3091,-71.78911,,http://bustracker.therta.com/bustime/eta/eta.jsp?route=14&id=87&showAllBusses=on,0,,America/New_York,,,0
820974,88,,BURNCOAT ST + CHATAM VILLAGE RD,,42.30795,-71.78911,,http://bustracker.therta.com/bustime/eta/eta.jsp?route=14&id=88&showAllBusses=on,0,,America/New_York,,,0
820975,89,,BURNCOAT ST + DOROTHY AVE,,42.30643,-71.7892,,http://bustracker.therta.com/bustime/eta/eta.jsp?route=14&id=89&showAllBusses=on,0,,America/New_York,,,0
820976,90,,BURNCOAT ST + DEVENS RD,,42.30571,-71.78933,,http://bustracker.therta.com/bustime/eta/eta.jsp?route=14&id=90&showAllBusses=on,0,,America/New_York,,,0
820978,93,,BURNCOAT ST + MONTEREY RD,,42.30305,-71.78961,,http://bustracker.therta.com/bustime/eta/eta.jsp?route=14&id=93&showAllBusses=on,0,,America/New_York,,,0
820979,94,,BURNCOAT ST + THORNDYKE RD,,42.30224,-71.78958,,http://bustracker.therta.com/bustime/eta/eta.jsp?route=14&id=94&showAllBusses=on,0,,America/New_York,,,0
820981,96,,BURNCOAT ST + REXAME RD,,42.29991,-71.7895,,http://bustracker.therta.com/bustime/eta/eta.jsp?route=14&id=96&showAllBusses=on,0,,America/New_York,,,0
820982,97,,BURNCOAT ST + BURNCOAT HIGH SCHOOL,,42.29906,-71.78961,,http://bustracker.therta.com/bustime/eta/eta.jsp?route=14&id=97&showAllBusses=on,0,,America/New_York,,,0
820983,98,,BURNCOAT ST + RANDOLPH RD,,42.29657,-71.78984,,http://bustracker.therta.com/bustime/eta/eta.jsp?route=14&id=98&showAllBusses=on,0,,America/New_York,,,0
820984,99,,BURNCOAT ST + CLEARVIEW AVE,,42.2953018307609,-71.7901978017387,,http://bustracker.therta.com/bustime/eta/eta.jsp?route=14&id=99&showAllBusses=on,0,,America/New_York,,,0
820986,101,,BURNCOAT ST + FAIRHAVEN,,42.2920995406602,-71.7906784940578,,http://bustracker.therta.com/bustime/eta/eta.jsp?route=14&id=101&showAllBusses=on,0,,America/New_York,,,0
820987,102,,BURNCOAT ST + RANKIN ST,,42.28862,-71.79075,,http://bustracker.therta.com/bustime/eta/eta.jsp?route=14&id=102&showAllBusses=on,0,,America/New_York,,,0
820988,103,,16 BURNCOAT ST,,42.2876838736303,-71.790828108962,,http://bustracker.therta.com/bustime/eta/eta.jsp?route=14&id=103&showAllBusses=on,0,,America/New_York,,,0
820989,547,,LINCOLN ST + BRITTON PLAZA,,42.28568,-71.79112,,http://bustracker.therta.com/bustime/eta/eta.jsp?route=26&id=547&showAllBusses=on,0,,America/New_York,,,0
820990,548,,LINCOLN ST + HARLOW ST,,42.28301,-71.79219,,http://bustracker.therta.com/bustime/eta/eta.jsp?route=26&id=548&showAllBusses=on,0,,America/New_York,,,0
820991,554,,LINCOLN ST + GREENHILL PKWY,,42.28136,-71.79286,,http://bustracker.therta.com/bustime/eta/eta.jsp?route=26&id=554&showAllBusses=on,0,,America/New_York,,,0
820992,549,,LINCOLN ST + PERKINS ST,,42.2789366443044,-71.793919254279,,http://bustracker.therta.com/bustime/eta/eta.jsp?route=26&id=549&showAllBusses=on,0,,America/New_York,,,0
820993,555,,LINCOLN ST + FREDERICK ST,,42.27768,-71.79462,,http://bustracker.therta.com/bustime/eta/eta.jsp?route=26&id=555&showAllBusses=on,0,,America/New_York,,,0
820994,550,,LINCOLN ST + CRESCENT ST,,42.27592,-71.79578,,http://bustracker.therta.com/bustime/eta/eta.jsp?route=26&id=550&showAllBusses=on,0,,America/New_York,,,0
820995,1266,,SUMMER ST + KENDALL ST,,42.2737680418497,-71.7968215713341,,http://bustracker.therta.com/bustime/eta/eta.jsp?route=14&id=1266&showAllBusses=on,0,,America/New_York,,,0
820996,1192,,51 SUMMER ST,,42.269376334197,-71.7969163764925,,http://bustracker.therta.com/bustime/eta/eta.jsp?route=14&id=1192&showAllBusses=on,0,,America/New_York,,,0
820997,1016,,SUMMER ST + PLUMLEY VILLAGE,,42.2682638989458,-71.7961259732817,,http://bustracker.therta.com/bustime/eta/eta.jsp?route=40&id=1016&showAllBusses=on,0,,America/New_York,,,0
820998,1014,,SUMMER ST + HAMPTON INN,,42.2670377800665,-71.7958164704506,,http://bustracker.therta.com/bustime/eta/eta.jsp?route=40&id=1014&showAllBusses=on,0,,America/New_York,,,0
820999,638,,MAIN ST + SUDBURY ST,,42.26654,-71.80101,,,0,,America/New_York,,,0
821000,639,,MAIN ST + MAPLE ST,,42.2652,-71.80148,,,0,,America/New_York,,,0
821001,621,,MAIN ST + CITY HALL,,42.2628669513363,-71.8022525718973,,http://bustracker.therta.com/bustime/eta/eta.jsp?route=40&id=621&showAllBusses=on,0,,America/New_York,,,0
821002,1189,,CINEMAS NORTH,,42.31678,-71.80221,,http://bustracker.therta.com/bustime/eta/eta.jsp?route=14&id=1189&showAllBusses=on,0,,America/New_York,,,0
821003,1265,,BROOK ST + HIGGINS ST,,42.3194414726584,-71.8007775241908,,http://bustracker.therta.com/bustime/eta/eta.jsp?route=14&id=1265&showAllBusses=on,0,,America/New_York,,,0
821004,572,,MAIN ST + MECHANIC HALL,,42.26556,-71.80124,,http://bustracker.therta.com/bustime/eta/eta.jsp?route=40&id=572&showAllBusses=on,0,,America/New_York,,,0
821005,1013,,SUMMER ST + EAST CENTRAL ST,,42.26705,-71.79559,,http://bustracker.therta.com/bustime/eta/eta.jsp?route=14&id=1013&showAllBusses=on,0,,America/New_York,,,0
821006,1015,,PLUMLEY VILLAGE,,42.26826,-71.79594,,http://bustracker.therta.com/bustime/eta/eta.jsp?route=14&id=1015&showAllBusses=on,0,,America/New_York,,,0
821007,1232,,SUMMER ST + KENDALL ST,,42.2737,-71.79672,,http://bustracker.therta.com/bustime/eta/eta.jsp?route=14&id=1232&showAllBusses=on,0,,America/New_York,,,0
821008,519,,LINCOLN ST + CATHERINE ST,,42.27644,-71.79532,,http://bustracker.therta.com/bustime/eta/eta.jsp?route=26&id=519&showAllBusses=on,0,,America/New_York,,,0
821009,520,,LINCOLN ST + FORESDALE RD,,42.27768,-71.79451,,http://bustracker.therta.com/bustime/eta/eta.jsp?route=26&id=520&showAllBusses=on,0,,America/New_York,,,0
821010,521,,LINCOLN ST + FORBES ST,,42.27937,-71.79356,,http://bustracker.therta.com/bustime/eta/eta.jsp?route=26&id=521&showAllBusses=on,0,,America/New_York,,,0
821011,522,,LINCOLN ST + GREENHILL PKWY,,42.28157,-71.79265,,http://bustracker.therta.com/bustime/eta/eta.jsp?route=26&id=522&showAllBusses=on,0,,America/New_York,,,0
821012,523,,LINCOLN ST + MCKINLEY RD,,42.28312,-71.79205,,http://bustracker.therta.com/bustime/eta/eta.jsp?route=26&id=523&showAllBusses=on,0,,America/New_York,,,0
821014,525,,LINCOLN ST + BRITTON SQUARE,,42.28607,-71.79079,,http://bustracker.therta.com/bustime/eta/eta.jsp?route=26&id=525&showAllBusses=on,0,,America/New_York,,,0
821015,49,,BURNCOAT ST + MELVILLE ST,,42.28801,-71.7907,,http://bustracker.therta.com/bustime/eta/eta.jsp?route=14&id=49&showAllBusses=on,0,,America/New_York,,,0
821016,50,,BURNCOAT ST + RANKIN ST,,42.28917,-71.79056,,http://bustracker.therta.com/bustime/eta/eta.jsp?route=14&id=50&showAllBusses=on,0,,America/New_York,,,0
821017,51,,BURNCOAT ST + WAWECUS RD,,42.29195,-71.79049,,http://bustracker.therta.com/bustime/eta/eta.jsp?route=14&id=51&showAllBusses=on,0,,America/New_York,,,0
821019,53,,BURNCOAT ST + PARKVIEW DR,,42.2935,-71.7906,,http://bustracker.therta.com/bustime/eta/eta.jsp?route=14&id=53&showAllBusses=on,0,,America/New_York,,,0
821020,54,,BURNCOAT ST + DAVIDSON RD,,42.29425,-71.79036,,http://bustracker.therta.com/bustime/eta/eta.jsp?route=14&id=54&showAllBusses=on,0,,America/New_York,,,0
821021,55,,BURNCOAT ST + BURNCOAT HIGH SCHOOL,,42.29651,-71.78974,,http://bustracker.therta.com/bustime/eta/eta.jsp?route=14&id=55&showAllBusses=on,0,,America/New_York,,,0
821022,56,,184 BURNCOAT ST,,42.29886,-71.78951,,http://bustracker.therta.com/bustime/eta/eta.jsp?route=14&id=56&showAllBusses=on,0,,America/New_York,,,0
821024,58,,BURNCOAT ST + THORNDYKE RD,,42.30268,-71.78949,,http://bustracker.therta.com/bustime/eta/eta.jsp?route=14&id=58&showAllBusses=on,0,,America/New_York,,,0
821025,59,,BURNCOAT ST + MONTEREY RD,,42.30337,-71.78952,,http://bustracker.therta.com/bustime/eta/eta.jsp?route=14&id=59&showAllBusses=on,0,,America/New_York,,,0
821026,61,,BURNCOAT ST + COVENTRY RD,,42.30427,-71.78946,,http://bustracker.therta.com/bustime/eta/eta.jsp?route=14&id=61&showAllBusses=on,0,,America/New_York,,,0
821028,63,,BURNCOAT ST + DEVENS RD,,42.30576,-71.7892,,http://bustracker.therta.com/bustime/eta/eta.jsp?route=14&id=63&showAllBusses=on,0,,America/New_York,,,0
821029,64,,BURNCOAT ST + CLARK ST,,42.30681,-71.78901,,http://bustracker.therta.com/bustime/eta/eta.jsp?route=14&id=64&showAllBusses=on,0,,America/New_York,,,0
821030,65,,BURNCOAT ST + CHATAM VILLAGE RD,,42.30804,-71.78898,,http://bustracker.therta.com/bustime/eta/eta.jsp?route=14&id=65&showAllBusses=on,0,,America/New_York,,,0
821031,66,,BURNCOAT ST + FAIRHAVEN RD,,42.30922,-71.78901,,http://bustracker.therta.com/bustime/eta/eta.jsp?route=14&id=66&showAllBusses=on,0,,America/New_York,,,0
821032,67,,BURNCOAT ST + QUINAPOXET LN,,42.31169,-71.78902,,http://bustracker.therta.com/bustime/eta/eta.jsp?route=14&id=67&showAllBusses=on,0,,America/New_York,,,0
821033,68,,BURNCOAT ST + INWOOD RD,,42.31307,-71.78921,,http://bustracker.therta.com/bustime/eta/eta.jsp?route=14&id=68&showAllBusses=on,0,,America/New_York,,,0
821034,69,,BURNCOAT ST + ASCADILLA RD,,42.31376,-71.78948,,http://bustracker.therta.com/bustime/eta/eta.jsp?route=14&id=69&showAllBusses=on,0,,America/New_York,,,0
821035,750,,MOUNTAIN ST EAST + BURNCOAT ST,,42.32369,-71.79226,,http://bustracker.therta.com/bustime/eta/eta.jsp?route=31&id=750&showAllBusses=on,0,,America/New_York,,,0
821036,753,,MOUNTAIN ST WEST + MALDEN ST,,42.3238,-71.79459,,http://bustracker.therta.com/bustime/eta/eta.jsp?route=14&id=753&showAllBusses=on,0,,America/New_York,,,0
821037,1264,,PULLMAN ST + PRICECHOPPER,,42.3241167074837,-71.7978917772017,,http://bustracker.therta.com/bustime/eta/eta.jsp?route=14&id=1264&showAllBusses=on,0,,America/New_York,,,0
821038,4575,,JULIO DR + SHREWSBURY COMMONS,,42.29209,-71.70386,,http://bustracker.therta.com/bustime/eta/eta.jsp?route=15&id=4575&showAllBusses=on,0,,America/New_York,,,0
821039,4580,,SOUTH ST + MAIN ST,,42.29516,-71.7033,,http://bustracker.therta.com/bustime/eta/eta.jsp?route=15&id=4580&showAllBusses=on,0,,America/New_York,,,0
821040,4585,,MAIN ST + HOLMAN ST,,42.29623,-71.70624,,http://bustracker.therta.com/bustime/eta/eta.jsp?route=15&id=4585&showAllBusses=on,0,,America/New_York,,,0
821041,4590,,MAIN ST + JOB CUSHING RD,,42.29661,-71.70986,,http://bustracker.therta.com/bustime/eta/eta.jsp?route=15&id=4590&showAllBusses=on,0,,America/New_York,,,0
821042,4595,,MAIN ST + SHREWSBURY CENTER,,42.29675,-71.71376,,http://bustracker.therta.com/bustime/eta/eta.jsp?route=15&id=4595&showAllBusses=on,0,,America/New_York,,,0
821043,4600,,MAIN ST + MAPLE ST,,42.29656,-71.7149,,http://bustracker.therta.com/bustime/eta/eta.jsp?route=15&id=4600&showAllBusses=on,0,,America/New_York,,,0
821044,4605,,MAPLE ST + BRIGHTSIDE AVE,,42.29084,-71.72166,,http://bustracker.therta.com/bustime/eta/eta.jsp?route=15&id=4605&showAllBusses=on,0,,America/New_York,,,0
821045,4610,,MAPLE ST + OAK ST,,42.28553,-71.72822,,http://bustracker.therta.com/bustime/eta/eta.jsp?route=15&id=4610&showAllBusses=on,0,,America/New_York,,,0
821046,4615,,MAPLE ST + VAN NESS AVE,,42.28233,-71.73322,,http://bustracker.therta.com/bustime/eta/eta.jsp?route=15&id=4615&showAllBusses=on,0,,America/New_York,,,0
821047,4620,,MAPLE ST + FAIRLAWN PLAZA,,42.2765988612725,-71.7365728815844,,http://bustracker.therta.com/bustime/eta/eta.jsp?route=15&id=4620&showAllBusses=on,0,,America/New_York,,,0
821048,4625,,BOSTON TRPK + HARRINGTON AVE,,42.27524,-71.74487,,http://bustracker.therta.com/bustime/eta/eta.jsp?route=15&id=4625&showAllBusses=on,0,,America/New_York,,,0
821049,4630,,BOSTON TRPK + WHITE CITY,,42.27473,-71.75099,,http://bustracker.therta.com/bustime/eta/eta.jsp?route=15&id=4630&showAllBusses=on,0,,America/New_York,,,0
821051,4640,,BOSTON TRPK + N. QUINSIGAMOND AVE,,42.27456,-71.75252,,http://bustracker.therta.com/bustime/eta/eta.jsp?route=15&id=4640&showAllBusses=on,0,,America/New_York,,,0
821052,1903,,BOSTON TRPK + ENTERING WORCESTER,,42.27444,-71.75451,,http://bustracker.therta.com/bustime/eta/eta.jsp?route=15&id=1903&showAllBusses=on,0,,America/New_York,,,0
821053,1149,,SOUTH RD + UNIVERSITY OF MASSACHUSETTS,,42.27585,-71.76152,,http://bustracker.therta.com/bustime/eta/eta.jsp?route=16&id=1149&showAllBusses=on,0,,America/New_York,,,0
821054,931,,SHREWSBURY ST + AITCHISON ST,,42.2733811975493,-71.7709134909264,,http://bustracker.therta.com/bustime/eta/eta.jsp?route=15&id=931&showAllBusses=on,0,,America/New_York,,,0
821055,932,,SHREWSBURY ST + DANIELS ST,,42.2728047515501,-71.7720607396275,,http://bustracker.therta.com/bustime/eta/eta.jsp?route=15&id=932&showAllBusses=on,0,,America/New_York,,,0
821057,933,,SHREWSBURY ST + PRENTICE ST,,42.2714115504412,-71.7750202582149,,http://bustracker.therta.com/bustime/eta/eta.jsp?route=15&id=933&showAllBusses=on,0,,America/New_York,,,0
821058,934,,SHREWSBURY ST + IMPERIAL RD,,42.2706264823416,-71.7766815560302,,http://bustracker.therta.com/bustime/eta/eta.jsp?route=15&id=934&showAllBusses=on,0,,America/New_York,,,0
821059,935,,SHREWSBURY ST + LARAIA ST,,42.2697579298034,-71.7783401214439,,http://bustracker.therta.com/bustime/eta/eta.jsp?route=15&id=935&showAllBusses=on,0,,America/New_York,,,0
821060,936,,SHREWSBURY ST + MARSHALL ST,,42.2688052552705,-71.7802240563942,,http://bustracker.therta.com/bustime/eta/eta.jsp?route=15&id=936&showAllBusses=on,0,,America/New_York,,,0
821061,1268,,SHREWSBURY ST + WAITE ST,,42.2674062375415,-71.7828427148221,,http://bustracker.therta.com/bustime/eta/eta.jsp?route=15&id=1268&showAllBusses=on,0,,America/New_York,,,0
821063,938,,SHREWSBURY ST + COLUMBO PARK,,42.2662794547587,-71.7850277625385,,http://bustracker.therta.com/bustime/eta/eta.jsp?route=15&id=938&showAllBusses=on,0,,America/New_York,,,0
821064,939,,SHREWSBURY ST + EAST CENTRAL ST,,42.2643790736301,-71.7888234794478,,http://bustracker.therta.com/bustime/eta/eta.jsp?route=15&id=939&showAllBusses=on,0,,America/New_York,,,0
821065,940,,SHREWSBURY ST + HILL ST,,42.263579646794,-71.7903632067012,,http://bustracker.therta.com/bustime/eta/eta.jsp?route=15&id=940&showAllBusses=on,0,,America/New_York,,,0
821066,1250,,SHREWSBURY ST + LEO TUORO WAY,,42.2627293914372,-71.7921583517447,,http://bustracker.therta.com/bustime/eta/eta.jsp?route=15&id=1250&showAllBusses=on,0,,America/New_York,,,0
821067,919,,SHREWSBURY ST + MULBERRY ST,,42.26244,-71.79248,,http://bustracker.therta.com/bustime/eta/eta.jsp?route=15&id=919&showAllBusses=on,0,,America/New_York,,,0
821068,920,,SHREWSBURY ST + HILL ST,,42.26345,-71.79001,,http://bustracker.therta.com/bustime/eta/eta.jsp?route=15&id=920&showAllBusses=on,0,,America/New_York,,,0
821069,921,,SHREWSBURY ST + CROSS ST,,42.26451,-71.78805,,http://bustracker.therta.com/bustime/eta/eta.jsp?route=15&id=921&showAllBusses=on,0,,America/New_York,,,0
821070,922,,SHREWSBURY ST + FANTASIA DR,,42.2666072950258,-71.7839142786275,,http://bustracker.therta.com/bustime/eta/eta.jsp?route=15&id=922&showAllBusses=on,0,,America/New_York,,,0
821071,923,,SHREWSBURY ST + CAMASSA TER,,42.2674047264132,-71.7822989050547,,http://bustracker.therta.com/bustime/eta/eta.jsp?route=15&id=923&showAllBusses=on,0,,America/New_York,,,0
821072,924,,SHREWSBURY ST + ENVELOPE TER,,42.26836,-71.78053,,http://bustracker.therta.com/bustime/eta/eta.jsp?route=15&id=924&showAllBusses=on,0,,America/New_York,,,0
821073,925,,SHREWSBURY ST + PUTNAM LN,,42.2693,-71.7787,,http://bustracker.therta.com/bustime/eta/eta.jsp?route=15&id=925&showAllBusses=on,0,,America/New_York,,,0
821074,926,,SHREWSBURY ST + ADAMS ST,,42.26989,-71.77754,,http://bustracker.therta.com/bustime/eta/eta.jsp?route=15&id=926&showAllBusses=on,0,,America/New_York,,,0
821075,927,,SHREWSBURY ST + HECLA ST,,42.27057,-71.77626,,http://bustracker.therta.com/bustime/eta/eta.jsp?route=15&id=927&showAllBusses=on,0,,America/New_York,,,0
821076,928,,SHREWSBURY ST + PRENTICE ST,,42.27122,-71.77499,,http://bustracker.therta.com/bustime/eta/eta.jsp?route=15&id=928&showAllBusses=on,0,,America/New_York,,,0
821077,929,,SHREWSBURY ST + DANIELS ST,,42.27265,-71.77192,,http://bustracker.therta.com/bustime/eta/eta.jsp?route=15&id=929&showAllBusses=on,0,,America/New_York,,,0
821078,930,,SHREWSBURY ST + AITCHISON ST,,42.27329,-71.7705,,http://bustracker.therta.com/bustime/eta/eta.jsp?route=15&id=930&showAllBusses=on,0,,America/New_York,,,0
821079,1148,,SOUTH RD + UNIVERSITY OF MASSACHUSETTS,,42.27569,-71.7615,,http://bustracker.therta.com/bustime/eta/eta.jsp?route=16&id=1148&showAllBusses=on,0,,America/New_York,,,0
821080,16,,BELMONT ST + LAKE AVE,,42.2739494537762,-71.7585163801446,,http://bustracker.therta.com/bustime/eta/eta.jsp?route=15&id=16&showAllBusses=on,0,,America/New_York,,,0
821081,4500,,BELMONT ST + ENTERING SHREWSBURY,,42.2741603886082,-71.7544824490738,,http://bustracker.therta.com/bustime/eta/eta.jsp?route=15&id=4500&showAllBusses=on,0,,America/New_York,,,0
821082,4505,,BOSTON TRPK + QUINSIGAMOND AVE,,42.27434,-71.7525,,http://bustracker.therta.com/bustime/eta/eta.jsp?route=15&id=4505&showAllBusses=on,0,,America/New_York,,,0
821083,4510,,BOSTON TRPK + WHITE CITY PLAZA,,42.27458,-71.75032,,http://bustracker.therta.com/bustime/eta/eta.jsp?route=15&id=4510&showAllBusses=on,0,,America/New_York,,,0
821084,4515,,BOSTON TRPK + SVENSON RD,,42.2750650256969,-71.7441985223337,,http://bustracker.therta.com/bustime/eta/eta.jsp?route=15&id=4515&showAllBusses=on,0,,America/New_York,,,0
821085,4520,,MAPLE AVE + FAIRLAWN PLAZA,,42.27641,-71.73655,,http://bustracker.therta.com/bustime/eta/eta.jsp?route=15&id=4520&showAllBusses=on,0,,America/New_York,,,0
821086,1156,,TARGET LINCOLN PLAZA,,42.2924665889895,-71.7747295042992,,http://bustracker.therta.com/bustime/eta/eta.jsp?route=16&id=1156&showAllBusses=on,0,,America/New_York,,,0
821087,1157,,STOP AND SHOP LINCOLN PLAZA,,42.29407,-71.77186,,http://bustracker.therta.com/bustime/eta/eta.jsp?route=16&id=1157&showAllBusses=on,0,,America/New_York,,,0
821088,533,,LINCOLN ST + MCDONALDS,,42.29525,-71.77271,,http://bustracker.therta.com/bustime/eta/eta.jsp?route=26&id=533&showAllBusses=on,0,,America/New_York,,,0
821089,534,,LINCOLN ST + TYLER PRENTICE RD,,42.2957318632083,-71.7708051056719,,http://bustracker.therta.com/bustime/eta/eta.jsp?route=26&id=534&showAllBusses=on,0,,America/New_York,,,0
821090,535,,LINCOLN ST + PASADENA PKWY,,42.2963969717944,-71.7692704220292,,http://bustracker.therta.com/bustime/eta/eta.jsp?route=26&id=535&showAllBusses=on,0,,America/New_York,,,0
821091,536,,LINCOLN ST + BENSON AVE,,42.2975073331424,-71.767422425719,,http://bustracker.therta.com/bustime/eta/eta.jsp?route=26&id=536&showAllBusses=on,0,,America/New_York,,,0
821092,1199,,640 LINCOLN ST,,42.2976257034846,-71.7646697425896,,http://bustracker.therta.com/bustime/eta/eta.jsp?route=16&id=1199&showAllBusses=on,0,,America/New_York,,,0
821095,1200,,425 NORTH LAKE AVE,,42.2943291293799,-71.7588958851851,,http://bustracker.therta.com/bustime/eta/eta.jsp?route=16&id=1200&showAllBusses=on,0,,America/New_York,,,0
821096,1201,,PLANTATION ST + FALLON CLINIC,,42.2925078297153,-71.759890608919,,http://bustracker.therta.com/bustime/eta/eta.jsp?route=16&id=1201&showAllBusses=on,0,,America/New_York,,,0
821097,809,,PLANTATION ST + NOTRE DAME,,42.28825,-71.76199,,http://bustracker.therta.com/bustime/eta/eta.jsp?route=16&id=809&showAllBusses=on,0,,America/New_York,,,0
821098,1270,,PLANTATION ST + PLANTATION TOWERS,,42.28372,-71.76268,,http://bustracker.therta.com/bustime/eta/eta.jsp?route=16&id=1270&showAllBusses=on,0,,America/New_York,,,0
821099,1203,,PLANTATION ST + NORTH RD,,42.27915,-71.76489,,http://bustracker.therta.com/bustime/eta/eta.jsp?route=16&id=1203&showAllBusses=on,0,,America/New_York,,,0
821100,509,,LAKE AVE + WIGWAM AVE,,42.27204,-71.75913,,http://bustracker.therta.com/bustime/eta/eta.jsp?route=16&id=509&showAllBusses=on,0,,America/New_York,,,0
821101,513,,LAKE AVE + LAKEVIEW ST,,42.26815,-71.75584,,http://bustracker.therta.com/bustime/eta/eta.jsp?route=16&id=513&showAllBusses=on,0,,America/New_York,,,0
821102,512,,LAKE AVE + ANNA ST,,42.26641,-71.75549,,http://bustracker.therta.com/bustime/eta/eta.jsp?route=16&id=512&showAllBusses=on,0,,America/New_York,,,0
821103,511,,LAKE AVE + OTHELLO RD,,42.26467,-71.75479,,http://bustracker.therta.com/bustime/eta/eta.jsp?route=16&id=511&showAllBusses=on,0,,America/New_York,,,0
821104,503,,LAKE AVE + NONQUIT ST,,42.2619068016981,-71.7543230026853,,http://bustracker.therta.com/bustime/eta/eta.jsp?route=16&id=503&showAllBusses=on,0,,America/New_York,,,0
821105,510,,LAKE AVE + HAMILTON ST,,42.26042,-71.75403,,http://bustracker.therta.com/bustime/eta/eta.jsp?route=16&id=510&showAllBusses=on,0,,America/New_York,,,0
821106,425,,HAMILTON ST + PARK ROAD ENTRANCE,,42.26002,-71.75568,,http://bustracker.therta.com/bustime/eta/eta.jsp?route=16&id=425&showAllBusses=on,0,,America/New_York,,,0
821107,426,,HAMILTON ST + COBURN AVE,,42.25983,-71.75845,,http://bustracker.therta.com/bustime/eta/eta.jsp?route=16&id=426&showAllBusses=on,0,,America/New_York,,,0
821108,413,,HAMILTON ST + PALISADES ST,,42.25929,-71.76026,,http://bustracker.therta.com/bustime/eta/eta.jsp?route=16&id=413&showAllBusses=on,0,,America/New_York,,,0
821109,414,,HAMILTON ST + MIDDLESEX AVE,,42.25949,-71.76338,,http://bustracker.therta.com/bustime/eta/eta.jsp?route=16&id=414&showAllBusses=on,0,,America/New_York,,,0
821110,415,,HAMILTON ST + RALPH AVE,,42.25956,-71.76433,,http://bustracker.therta.com/bustime/eta/eta.jsp?route=16&id=415&showAllBusses=on,0,,America/New_York,,,0
821112,417,,HAMILTON ST + HAROLD ST,,42.25894,-71.76593,,http://bustracker.therta.com/bustime/eta/eta.jsp?route=16&id=417&showAllBusses=on,0,,America/New_York,,,0
821113,418,,HAMILTON ST + ANDERSON AVE,,42.25836,-71.76686,,http://bustracker.therta.com/bustime/eta/eta.jsp?route=16&id=418&showAllBusses=on,0,,America/New_York,,,0
821114,420,,HAMILTON ST + HARRINGTON WAY,,42.25751,-71.76913,,http://bustracker.therta.com/bustime/eta/eta.jsp?route=16&id=420&showAllBusses=on,0,,America/New_York,,,0
821115,421,,HAMILTON ST + GORDON ST,,42.25708,-71.7705,,http://bustracker.therta.com/bustime/eta/eta.jsp?route=16&id=421&showAllBusses=on,0,,America/New_York,,,0
821116,409,,HAMILTON ST + WARNER AVE,,42.25656,-71.77339,,http://bustracker.therta.com/bustime/eta/eta.jsp?route=16&id=409&showAllBusses=on,0,,America/New_York,,,0
821118,422,,HAMILTON ST + DELMONT AVE,,42.25643,-71.77604,,http://bustracker.therta.com/bustime/eta/eta.jsp?route=16&id=422&showAllBusses=on,0,,America/New_York,,,0
821120,411,,HAMILTON ST + PILGRIM AVE,,42.25629,-71.77856,,http://bustracker.therta.com/bustime/eta/eta.jsp?route=16&id=411&showAllBusses=on,0,,America/New_York,,,0
821121,412,,HAMILTON ST + INGLESIDE AVE,,42.2562,-71.78019,,http://bustracker.therta.com/bustime/eta/eta.jsp?route=16&id=412&showAllBusses=on,0,,America/New_York,,,0
821122,424,,HAMILTON ST + PLANTATION ST,,42.2561,-71.78227,,http://bustracker.therta.com/bustime/eta/eta.jsp?route=16&id=424&showAllBusses=on,0,,America/New_York,,,0
821123,304,,GRAFTON ST + ORIENT ST,,42.25601,-71.78568,,http://bustracker.therta.com/bustime/eta/eta.jsp?route=16&id=304&showAllBusses=on,0,,America/New_York,,,0
821124,305,,GRAFTON ST + FAY ST,,42.2562,-71.78762,,http://bustracker.therta.com/bustime/eta/eta.jsp?route=16&id=305&showAllBusses=on,0,,America/New_York,,,0
821125,319,,GRAFTON ST + MENDON ST,,42.25647,-71.78924,,http://bustracker.therta.com/bustime/eta/eta.jsp?route=16&id=319&showAllBusses=on,0,,America/New_York,,,0
821126,297,,GRAFTON ST + PENN AVE,,42.25728,-71.79106,,http://bustracker.therta.com/bustime/eta/eta.jsp?route=16&id=297&showAllBusses=on,0,,America/New_York,,,0
821127,1202,,PLANTATION TOWERS,,42.28602,-71.76524,,http://bustracker.therta.com/bustime/eta/eta.jsp?route=16&id=1202&showAllBusses=on,0,,America/New_York,,,0
821128,260,,GRAFTON ST + CORAL ST,,42.25739,-71.79149,,http://bustracker.therta.com/bustime/eta/eta.jsp?route=16&id=260&showAllBusses=on,0,,America/New_York,,,0
821129,261,,GRAFTON ST + WAVERLY ST,,42.25652,-71.78993,,http://bustracker.therta.com/bustime/eta/eta.jsp?route=16&id=261&showAllBusses=on,0,,America/New_York,,,0
821130,262,,GRAFTON ST + MENDON ST,,42.25618,-71.78796,,http://bustracker.therta.com/bustime/eta/eta.jsp?route=16&id=262&showAllBusses=on,0,,America/New_York,,,0
821131,263,,GRAFTON ST + BILLINGS SQUARE,,42.2559,-71.78599,,http://bustracker.therta.com/bustime/eta/eta.jsp?route=16&id=263&showAllBusses=on,0,,America/New_York,,,0
821132,387,,HAMILTON ST + DUPONT ST,,42.25576,-71.78429,,http://bustracker.therta.com/bustime/eta/eta.jsp?route=16&id=387&showAllBusses=on,0,,America/New_York,,,0
821133,388,,HAMILTON ST + PLANTATION ST,,42.25591,-71.78205,,http://bustracker.therta.com/bustime/eta/eta.jsp?route=16&id=388&showAllBusses=on,0,,America/New_York,,,0
821134,389,,HAMILTON ST + INGLESIDE AVE,,42.25597,-71.78052,,http://bustracker.therta.com/bustime/eta/eta.jsp?route=16&id=389&showAllBusses=on,0,,America/New_York,,,0
821136,391,,HAMILTON ST + PILGRIM AVE,,42.25608,-71.77848,,http://bustracker.therta.com/bustime/eta/eta.jsp?route=16&id=391&showAllBusses=on,0,,America/New_York,,,0
821137,393,,HAMILTON ST + DELMONT AVE,,42.2562,-71.77601,,http://bustracker.therta.com/bustime/eta/eta.jsp?route=16&id=393&showAllBusses=on,0,,America/New_York,,,0
821139,395,,HAMILTON ST + WARNER AVE,,42.25633,-71.77305,,http://bustracker.therta.com/bustime/eta/eta.jsp?route=16&id=395&showAllBusses=on,0,,America/New_York,,,0
821140,397,,HAMILTON ST + TRAHAN AVE,,42.25708,-71.76982,,http://bustracker.therta.com/bustime/eta/eta.jsp?route=16&id=397&showAllBusses=on,0,,America/New_York,,,0
821141,398,,HAMILTON ST + ELMIRE AVE,,42.25735,-71.76892,,http://bustracker.therta.com/bustime/eta/eta.jsp?route=16&id=398&showAllBusses=on,0,,America/New_York,,,0
821142,399,,HAMILTON ST + ERNEST AVE,,42.25781,-71.76744,,http://bustracker.therta.com/bustime/eta/eta.jsp?route=16&id=399&showAllBusses=on,0,,America/New_York,,,0
821144,401,,HAMILTON ST + HAROLD ST,,42.259,-71.76534,,http://bustracker.therta.com/bustime/eta/eta.jsp?route=16&id=401&showAllBusses=on,0,,America/New_York,,,0
821145,402,,HAMILTON ST + COMMONWEALTH AVE,,42.25929,-71.76466,,http://bustracker.therta.com/bustime/eta/eta.jsp?route=16&id=402&showAllBusses=on,0,,America/New_York,,,0
821147,404,,HAMILTON ST + BOSTON AVE,,42.25885,-71.76208,,http://bustracker.therta.com/bustime/eta/eta.jsp?route=16&id=404&showAllBusses=on,0,,America/New_York,,,0
821149,406,,HAMILTON ST + COBURN AVE,,42.25951,-71.75914,,http://bustracker.therta.com/bustime/eta/eta.jsp?route=16&id=406&showAllBusses=on,0,,America/New_York,,,0
821150,407,,HAMILTON ST + PARK ROAD ENTRANCE,,42.25996,-71.75573,,http://bustracker.therta.com/bustime/eta/eta.jsp?route=16&id=407&showAllBusses=on,0,,America/New_York,,,0
821151,502,,LAKE AVE + HAMILTON ST,,42.26045,-71.75368,,http://bustracker.therta.com/bustime/eta/eta.jsp?route=16&id=502&showAllBusses=on,0,,America/New_York,,,0
821152,504,,LAKE AVE + LAKE PARK,,42.26197,-71.75397,,http://bustracker.therta.com/bustime/eta/eta.jsp?route=16&id=504&showAllBusses=on,0,,America/New_York,,,0
821153,506,,LAKE AVE + OTHELLO RD,,42.26482,-71.75459,,http://bustracker.therta.com/bustime/eta/eta.jsp?route=16&id=506&showAllBusses=on,0,,America/New_York,,,0
821154,505,,LAKE AVE + ANNA ST,,42.26637,-71.75521,,http://bustracker.therta.com/bustime/eta/eta.jsp?route=16&id=505&showAllBusses=on,0,,America/New_York,,,0
821155,507,,LAKE AVE + LAKEVIEW ST,,42.2684,-71.75564,,http://bustracker.therta.com/bustime/eta/eta.jsp?route=16&id=507&showAllBusses=on,0,,America/New_York,,,0
821156,501,,LAKE AVE + LINCOLN PARK TOWERS,,42.27263,-71.75897,,http://bustracker.therta.com/bustime/eta/eta.jsp?route=16&id=501&showAllBusses=on,0,,America/New_York,,,0
821157,500,,LAKE AVE + BELMONT ST,,42.27377,-71.75885,,http://bustracker.therta.com/bustime/eta/eta.jsp?route=16&id=500&showAllBusses=on,0,,America/New_York,,,0
821158,1204,,PLANTATION ST + NORTH RD,,42.2785872581955,-71.7649663704633,,http://bustracker.therta.com/bustime/eta/eta.jsp?route=16&id=1204&showAllBusses=on,0,,America/New_York,,,0
821159,1269,,PLANTATION ST + WINCO ST,,42.28349,-71.76264,,http://bustracker.therta.com/bustime/eta/eta.jsp?route=16&id=1269&showAllBusses=on,0,,America/New_York,,,0
821160,1205,,PLANTATION ST + NOTRE DAME,,42.28785,-71.762,,http://bustracker.therta.com/bustime/eta/eta.jsp?route=16&id=1205&showAllBusses=on,0,,America/New_York,,,0
821161,785,,PLANTATION ST + NATURAL HISTORY RD,,42.28987,-71.76047,,http://bustracker.therta.com/bustime/eta/eta.jsp?route=16&id=785&showAllBusses=on,0,,America/New_York,,,0
821162,808,,PLANTATION ST + FALLON CLINIC,,42.29201,-71.76049,,http://bustracker.therta.com/bustime/eta/eta.jsp?route=16&id=808&showAllBusses=on,0,,America/New_York,,,0
821163,1206,,425 NORTH LAKE AVE,,42.29436,-71.75874,,http://bustracker.therta.com/bustime/eta/eta.jsp?route=16&id=1206&showAllBusses=on,0,,America/New_York,,,0
821164,437,,LINCOLN ST + GEORGE BOOTH APARTMENTS,,42.29736,-71.76092,,http://bustracker.therta.com/bustime/eta/eta.jsp?route=16&id=437&showAllBusses=on,0,,America/New_York,,,0
821165,1207,,640 LINCOLN ST,,42.29781,-71.76453,,http://bustracker.therta.com/bustime/eta/eta.jsp?route=16&id=1207&showAllBusses=on,0,,America/New_York,,,0
821166,537,,LINCOLN ST + BOYLSTON ST,,42.29761,-71.76779,,http://bustracker.therta.com/bustime/eta/eta.jsp?route=26&id=537&showAllBusses=on,0,,America/New_York,,,0
821167,538,,LINCOLN ST + PASADENA PKWY,,42.29678,-71.76916,,http://bustracker.therta.com/bustime/eta/eta.jsp?route=26&id=538&showAllBusses=on,0,,America/New_York,,,0
821168,539,,LINCOLN ST + MCDONALDS,,42.29545,-71.77263,,http://bustracker.therta.com/bustime/eta/eta.jsp?route=26&id=539&showAllBusses=on,0,,America/New_York,,,0
821169,540,,LINCOLN ST + LINCOLN PLAZA,,42.29463,-71.77512,,http://bustracker.therta.com/bustime/eta/eta.jsp?route=26&id=540&showAllBusses=on,0,,America/New_York,,,0
821170,1151,,WORCESTER AIRPORT,,42.26947,-71.87027,,http://bustracker.therta.com/bustime/eta/eta.jsp?route=2&id=1151&showAllBusses=on,0,,America/New_York,,,0
821171,251,,GODDARD DR + T J MAXX,,42.25426,-71.86683,,http://bustracker.therta.com/bustime/eta/eta.jsp?route=19&id=251&showAllBusses=on,0,,America/New_York,,,0
821172,250,,GODDARD DR + UPPER PARSONS HILL DR,,42.24743,-71.86118,,http://bustracker.therta.com/bustime/eta/eta.jsp?route=19&id=250&showAllBusses=on,0,,America/New_York,,,0
821173,1209,,GODDARD DR + LOWER PARSONS HILL DR,,42.2434036547541,-71.8561945499827,,http://bustracker.therta.com/bustime/eta/eta.jsp?route=19&id=1209&showAllBusses=on,0,,America/New_York,,,0
821174,627,,MAIN ST + STEARNS ST,,42.2406453501124,-71.8535647587642,,http://bustracker.therta.com/bustime/eta/eta.jsp?route=33&id=627&showAllBusses=on,0,,America/New_York,,,0
821175,628,,MAIN ST + GRANDVIEW AVE,,42.2409296506121,-71.8516265933396,,http://bustracker.therta.com/bustime/eta/eta.jsp?route=33&id=628&showAllBusses=on,0,,America/New_York,,,0
821176,629,,MAIN ST + EUREKA TER,,42.24134,-71.84946,,http://bustracker.therta.com/bustime/eta/eta.jsp?route=33&id=629&showAllBusses=on,0,,America/New_York,,,0
821177,630,,MAIN ST + HENSHAW ST,,42.24163,-71.84811,,http://bustracker.therta.com/bustime/eta/eta.jsp?route=33&id=630&showAllBusses=on,0,,America/New_York,,,0
821178,631,,MAIN ST + BLAINE AVE,,42.24196,-71.84664,,http://bustracker.therta.com/bustime/eta/eta.jsp?route=33&id=631&showAllBusses=on,0,,America/New_York,,,0
821179,633,,MAIN ST + CURTIS PKWY,,42.2425,-71.84415,,http://bustracker.therta.com/bustime/eta/eta.jsp?route=33&id=633&showAllBusses=on,0,,America/New_York,,,0
821180,648,,MAIN ST + WEBSTER SQUARE PLAZA,,42.24261,-71.84257,,http://bustracker.therta.com/bustime/eta/eta.jsp?route=19&id=648&showAllBusses=on,0,,America/New_York,,,0
821182,635,,MAIN ST + MONTAGUE ST,,42.24348,-71.83973,,http://bustracker.therta.com/bustime/eta/eta.jsp?route=19&id=635&showAllBusses=on,0,,America/New_York,,,0
821183,636,,MAIN ST + ARBOR VITAE ST,,42.244214635271,-71.8372113810942,,http://bustracker.therta.com/bustime/eta/eta.jsp?route=19&id=636&showAllBusses=on,0,,America/New_York,,,0
821184,637,,MAIN ST + WEBSTER SQUARE,,42.24481,-71.83436,,http://bustracker.therta.com/bustime/eta/eta.jsp?route=19&id=637&showAllBusses=on,0,,America/New_York,,,0
821185,640,,MAIN ST + ARENA PLAZA,,42.2457148080313,-71.8305140695368,,http://bustracker.therta.com/bustime/eta/eta.jsp?route=19&id=640&showAllBusses=on,0,,America/New_York,,,0
821187,611,,MAIN ST + TIRRELL ST,,42.2468485246465,-71.8282699398339,,http://bustracker.therta.com/bustime/eta/eta.jsp?route=19&id=611&showAllBusses=on,0,,America/New_York,,,0
821188,612,,MAIN ST + LOWELL ST,,42.24764,-71.82689,,http://bustracker.therta.com/bustime/eta/eta.jsp?route=19&id=612&showAllBusses=on,0,,America/New_York,,,0
821189,641,,MAIN ST + FREELAND ST,,42.24835,-71.82557,,http://bustracker.therta.com/bustime/eta/eta.jsp?route=19&id=641&showAllBusses=on,0,,America/New_York,,,0
821190,642,,MAIN ST + CRYSTAL ST,,42.24973,-71.82304,,http://bustracker.therta.com/bustime/eta/eta.jsp?route=19&id=642&showAllBusses=on,0,,America/New_York,,,0
821192,614,,MAIN ST + WYMAN ST,,42.25135,-71.82001,,http://bustracker.therta.com/bustime/eta/eta.jsp?route=19&id=614&showAllBusses=on,0,,America/New_York,,,0
821193,615,,MAIN ST + GARDNER ST,,42.25213,-71.81855,,http://bustracker.therta.com/bustime/eta/eta.jsp?route=19&id=615&showAllBusses=on,0,,America/New_York,,,0
821194,616,,MAIN ST + RIPLEY ST,,42.25336,-71.81624,,http://bustracker.therta.com/bustime/eta/eta.jsp?route=19&id=616&showAllBusses=on,0,,America/New_York,,,0
821195,643,,MAIN ST + HAMMOND ST,,42.25429,-71.81473,,http://bustracker.therta.com/bustime/eta/eta.jsp?route=19&id=643&showAllBusses=on,0,,America/New_York,,,0
821196,644,,MAIN ST + BENEFIT ST,,42.25545,-71.81244,,http://bustracker.therta.com/bustime/eta/eta.jsp?route=19&id=644&showAllBusses=on,0,,America/New_York,,,0
821197,617,,MAIN ST + LAGRANGE ST,,42.25633,-71.81071,,http://bustracker.therta.com/bustime/eta/eta.jsp?route=19&id=617&showAllBusses=on,0,,America/New_York,,,0
821199,646,,MAIN ST + HERMON ST,,42.25772,-71.80813,,http://bustracker.therta.com/bustime/eta/eta.jsp?route=19&id=646&showAllBusses=on,0,,America/New_York,,,0
821200,619,,MAIN ST + IONIC AVE,,42.25881,-71.80619,,http://bustracker.therta.com/bustime/eta/eta.jsp?route=19&id=619&showAllBusses=on,0,,America/New_York,,,0
821201,647,,MAIN ST + DMV,,42.25987,-71.80474,,http://bustracker.therta.com/bustime/eta/eta.jsp?route=19&id=647&showAllBusses=on,0,,America/New_York,,,0
821202,7530,,SOOJIANS DR + LEICESTER WALMART,,42.24975,-71.93679,,http://bustracker.therta.com/bustime/eta/eta.jsp?route=33&id=7530&showAllBusses=on,0,,America/New_York,,,0
821203,7535,,1530 MAIN ST,,42.2454942553576,-71.9323730597044,,http://bustracker.therta.com/bustime/eta/eta.jsp?route=33&id=7535&showAllBusses=on,0,,America/New_York,,,0
821204,7540,,MAIN ST + PINE ST,,42.2455,-71.91348,,http://bustracker.therta.com/bustime/eta/eta.jsp?route=33&id=7540&showAllBusses=on,0,,America/New_York,,,0
821205,7545,,MAIN ST + LEICESTER CENTER,,42.2459984633992,-71.9087362526041,,http://bustracker.therta.com/bustime/eta/eta.jsp?route=33&id=7545&showAllBusses=on,0,,America/New_York,,,0
821206,7550,,MAIN ST + HENSHAW ST,,42.2454713701875,-71.8991557956647,,http://bustracker.therta.com/bustime/eta/eta.jsp?route=33&id=7550&showAllBusses=on,0,,America/New_York,,,0
821207,7555,,MAIN ST + AUBURN ST,,42.2403821060212,-71.8799002702507,,http://bustracker.therta.com/bustime/eta/eta.jsp?route=33&id=7555&showAllBusses=on,0,,America/New_York,,,0
821208,7560,,MAIN ST + GERALD CT,,42.2423260087317,-71.8676209629128,,http://bustracker.therta.com/bustime/eta/eta.jsp?route=33&id=7560&showAllBusses=on,0,,America/New_York,,,0
821209,622,,MAIN ST + LEICESTER LINE,,42.2405829168033,-71.8634343139828,,http://bustracker.therta.com/bustime/eta/eta.jsp?route=33&id=622&showAllBusses=on,0,,America/New_York,,,0
821210,624,,MAIN ST + GOULD HILL RD,,42.24034,-71.86053,,http://bustracker.therta.com/bustime/eta/eta.jsp?route=33&id=624&showAllBusses=on,0,,America/New_York,,,0
821211,625,,MAIN ST + LUDLOW ST,,42.23973,-71.85625,,http://bustracker.therta.com/bustime/eta/eta.jsp?route=33&id=625&showAllBusses=on,0,,America/New_York,,,0
821213,8030,,SPENCER DPW,,42.2378,-72.00955,,http://bustracker.therta.com/bustime/eta/eta.jsp?route=33&id=8030&showAllBusses=on,0,,America/New_York,,,0
821214,8035,,MEADOW RD + MAIN ST,,42.23451,-72.01204,,http://bustracker.therta.com/bustime/eta/eta.jsp?route=33&id=8035&showAllBusses=on,0,,America/New_York,,,0
821215,8040,,MAIN ST + SPENCER CENTER,,42.243841728166,-71.9945363836327,,http://bustracker.therta.com/bustime/eta/eta.jsp?route=33&id=8040&showAllBusses=on,0,,America/New_York,,,0
821216,8045,,MAIN ST + SPENCER TOWN HALL,,42.24423,-71.99216,,http://bustracker.therta.com/bustime/eta/eta.jsp?route=33&id=8045&showAllBusses=on,0,,America/New_York,,,0
821217,8050,,MAIN ST + DAVID PROUTY HIGH SCHOOL,,42.25089,-71.97818,,http://bustracker.therta.com/bustime/eta/eta.jsp?route=33&id=8050&showAllBusses=on,0,,America/New_York,,,0
821218,8055,,MAIN ST + BOND ST,,42.2564447991352,-71.9590795378246,,http://bustracker.therta.com/bustime/eta/eta.jsp?route=33&id=8055&showAllBusses=on,0,,America/New_York,,,0
821219,7501,,MAIN ST + ENTERING LEICESTER,,42.2558231003696,-71.954648100233,,http://bustracker.therta.com/bustime/eta/eta.jsp?route=33&id=7501&showAllBusses=on,0,,America/New_York,,,0
821221,1182,,MAIN ST + FEDERAL COURT HOUSE,,42.2608928160553,-71.8039068398615,,http://bustracker.therta.com/bustime/eta/eta.jsp?route=19&id=1182&showAllBusses=on,0,,America/New_York,,,0
821223,596,,MAIN ST + WELLINGTON ST,,42.2581,-71.80766,,http://bustracker.therta.com/bustime/eta/eta.jsp?route=19&id=596&showAllBusses=on,0,,America/New_York,,,0
821224,597,,MAIN ST + JACKSON ST,,42.25678,-71.81008,,http://bustracker.therta.com/bustime/eta/eta.jsp?route=19&id=597&showAllBusses=on,0,,America/New_York,,,0
821226,599,,MAIN ST + OREAD PL,,42.25568,-71.81225,,http://bustracker.therta.com/bustime/eta/eta.jsp?route=19&id=599&showAllBusses=on,0,,America/New_York,,,0
821227,600,,MAIN ST + MAY ST,,42.25444,-71.81476,,http://bustracker.therta.com/bustime/eta/eta.jsp?route=19&id=600&showAllBusses=on,0,,America/New_York,,,0
821228,601,,MAIN ST + CLAREMONT ST,,42.25365,-71.81604,,http://bustracker.therta.com/bustime/eta/eta.jsp?route=19&id=601&showAllBusses=on,0,,America/New_York,,,0
821229,602,,MAIN ST + NORWOOD ST,,42.25248,-71.81817,,http://bustracker.therta.com/bustime/eta/eta.jsp?route=19&id=602&showAllBusses=on,0,,America/New_York,,,0
821230,603,,MAIN ST + HAWTHORNE ST,,42.2514,-71.82018,,http://bustracker.therta.com/bustime/eta/eta.jsp?route=19&id=603&showAllBusses=on,0,,America/New_York,,,0
821231,604,,MAIN ST + CLARK UNIVERSITY,,42.24996,-71.82285,,http://bustracker.therta.com/bustime/eta/eta.jsp?route=19&id=604&showAllBusses=on,0,,America/New_York,,,0
821232,605,,MAIN ST + BEAVER ST,,42.2493,-71.82408,,http://bustracker.therta.com/bustime/eta/eta.jsp?route=19&id=605&showAllBusses=on,0,,America/New_York,,,0
821234,607,,MAIN ST + MARBLE ST,,42.24768,-71.82708,,http://bustracker.therta.com/bustime/eta/eta.jsp?route=19&id=607&showAllBusses=on,0,,America/New_York,,,0
821235,608,,MAIN ST + LUCIAN ST,,42.24671,-71.82881,,http://bustracker.therta.com/bustime/eta/eta.jsp?route=19&id=608&showAllBusses=on,0,,America/New_York,,,0
821236,609,,MAIN ST + CAMBRIDGE ST,,42.24547,-71.83142,,http://bustracker.therta.com/bustime/eta/eta.jsp?route=19&id=609&showAllBusses=on,0,,America/New_York,,,0
821238,576,,MAIN ST + WEBSTER SQUARE,,42.24491,-71.83439,,http://bustracker.therta.com/bustime/eta/eta.jsp?route=19&id=576&showAllBusses=on,0,,America/New_York,,,0
821239,577,,MAIN ST + ARBOR VITAE ST,,42.24431,-71.83742,,http://bustracker.therta.com/bustime/eta/eta.jsp?route=19&id=577&showAllBusses=on,0,,America/New_York,,,0
821240,578,,MAIN ST + WAYNE ST,,42.24388,-71.83889,,http://bustracker.therta.com/bustime/eta/eta.jsp?route=19&id=578&showAllBusses=on,0,,America/New_York,,,0
821241,579,,MAIN ST + YOUNG ST,,42.24311,-71.84122,,http://bustracker.therta.com/bustime/eta/eta.jsp?route=19&id=579&showAllBusses=on,0,,America/New_York,,,0
821242,580,,MAIN ST + WEBSTER SQUARE PLAZA,,42.2428,-71.84261,,http://bustracker.therta.com/bustime/eta/eta.jsp?route=19&id=580&showAllBusses=on,0,,America/New_York,,,0
821243,581,,MAIN ST + GATES LN,,42.24264,-71.84432,,http://bustracker.therta.com/bustime/eta/eta.jsp?route=19&id=581&showAllBusses=on,0,,America/New_York,,,0
821244,582,,MAIN ST + BROOKLINE ST,,42.24225,-71.84593,,http://bustracker.therta.com/bustime/eta/eta.jsp?route=19&id=582&showAllBusses=on,0,,America/New_York,,,0
821246,584,,MAIN ST + SYLVAN ST,,42.24175,-71.84819,,http://bustracker.therta.com/bustime/eta/eta.jsp?route=19&id=584&showAllBusses=on,0,,America/New_York,,,0
821247,585,,MAIN ST + EUREKA ST,,42.24136,-71.84992,,http://bustracker.therta.com/bustime/eta/eta.jsp?route=19&id=585&showAllBusses=on,0,,America/New_York,,,0
821248,586,,MAIN ST + GRANDVIEW AVE,,42.24102,-71.85203,,http://bustracker.therta.com/bustime/eta/eta.jsp?route=19&id=586&showAllBusses=on,0,,America/New_York,,,0
821250,1210,,GODDARD DR + LOWER PARSONS HILL DR,,42.24365,-71.8561,,http://bustracker.therta.com/bustime/eta/eta.jsp?route=19&id=1210&showAllBusses=on,0,,America/New_York,,,0
821251,249,,GODDARD DR + UPPER PARSONS HILL DR,,42.24762,-71.86106,,http://bustracker.therta.com/bustime/eta/eta.jsp?route=19&id=249&showAllBusses=on,0,,America/New_York,,,0
821252,248,,GODDARD DR + T J MAXX,,42.2539239956261,-71.8664591083303,,http://bustracker.therta.com/bustime/eta/eta.jsp?route=19&id=248&showAllBusses=on,0,,America/New_York,,,0
821253,1212,,156 GODDARD DR,,42.2575507826303,-71.865953522278,,http://bustracker.therta.com/bustime/eta/eta.jsp?route=19&id=1212&showAllBusses=on,0,,America/New_York,,,0
821254,588,,MAIN ST + ARMANDALE ST,,42.24039,-71.85491,,http://bustracker.therta.com/bustime/eta/eta.jsp?route=19&id=588&showAllBusses=on,0,,America/New_York,,,0
821255,589,,MAIN ST + LUDLOW ST,,42.23985,-71.85631,,http://bustracker.therta.com/bustime/eta/eta.jsp?route=19&id=589&showAllBusses=on,0,,America/New_York,,,0
821256,590,,MAIN ST + GOULD HILL RD,,42.24044,-71.86,,http://bustracker.therta.com/bustime/eta/eta.jsp?route=19&id=590&showAllBusses=on,0,,America/New_York,,,0
821257,592,,MAIN ST + LEICESTER LINE,,42.24078,-71.86359,,http://bustracker.therta.com/bustime/eta/eta.jsp?route=19&id=592&showAllBusses=on,0,,America/New_York,,,0
821258,7505,,MAIN ST + BOAT DEALERSHIP,,42.2426,-71.86789,,http://bustracker.therta.com/bustime/eta/eta.jsp?route=19&id=7505&showAllBusses=on,0,,America/New_York,,,0
821259,7510,,MAIN ST + AUBURN ST,,42.24021,-71.88065,,http://bustracker.therta.com/bustime/eta/eta.jsp?route=19&id=7510&showAllBusses=on,0,,America/New_York,,,0
821260,7515,,MAIN ST + HENSHAW ST,,42.24551,-71.89934,,http://bustracker.therta.com/bustime/eta/eta.jsp?route=19&id=7515&showAllBusses=on,0,,America/New_York,,,0
821261,7520,,MAIN ST + LEICESTER CENTER,,42.24576,-71.90783,,http://bustracker.therta.com/bustime/eta/eta.jsp?route=19&id=7520&showAllBusses=on,0,,America/New_York,,,0
821262,7525,,1530 MAIN ST,,42.24558,-71.93242,,http://bustracker.therta.com/bustime/eta/eta.jsp?route=19&id=7525&showAllBusses=on,0,,America/New_York,,,0
821263,8000,,MAIN ST + ENTERING SPENCER,,42.25601,-71.95495,,http://bustracker.therta.com/bustime/eta/eta.jsp?route=19&id=8000&showAllBusses=on,0,,America/New_York,,,0
821264,8005,,MAIN ST + BOND ST,,42.25648,-71.9592,,http://bustracker.therta.com/bustime/eta/eta.jsp?route=19&id=8005&showAllBusses=on,0,,America/New_York,,,0
821265,8010,,MAIN ST + DAVID PROUTY HIGH SCHOOL,,42.251,-71.97797,,http://bustracker.therta.com/bustime/eta/eta.jsp?route=19&id=8010&showAllBusses=on,0,,America/New_York,,,0
821266,8015,,MAIN ST + SPENCER TOWN HALL,,42.24423,-71.99215,,http://bustracker.therta.com/bustime/eta/eta.jsp?route=19&id=8015&showAllBusses=on,0,,America/New_York,,,0
821267,8020,,MAIN ST + SPENCER CENTER,,42.24378,-71.99516,,http://bustracker.therta.com/bustime/eta/eta.jsp?route=19&id=8020&showAllBusses=on,0,,America/New_York,,,0
821268,8025,,MEADOW RD + SPENCER FAIR,,42.23479,-72.01174,,http://bustracker.therta.com/bustime/eta/eta.jsp?route=19&id=8025&showAllBusses=on,0,,America/New_York,,,0
821269,782,,31 MOWER ST,,42.27903,-71.85464,,http://bustracker.therta.com/bustime/eta/eta.jsp?route=6&id=782&showAllBusses=on,0,,America/New_York,,,0
821270,844,,PLEASANT ST + TATNUCK SQUARE,,42.2782,-71.85302,,http://bustracker.therta.com/bustime/eta/eta.jsp?route=2&id=844&showAllBusses=on,0,,America/New_York,,,0
821271,851,,PLEASANT ST + MILL ST,,42.27796,-71.85112,,http://bustracker.therta.com/bustime/eta/eta.jsp?route=2&id=851&showAllBusses=on,0,,America/New_York,,,0
821272,852,,PLEASANT ST + COPPERFIELD RD,,42.27804,-71.8502,,http://bustracker.therta.com/bustime/eta/eta.jsp?route=2&id=852&showAllBusses=on,0,,America/New_York,,,0
821273,853,,PLEASANT ST + CHESTERFIELD RD,,42.27837,-71.84837,,http://bustracker.therta.com/bustime/eta/eta.jsp?route=2&id=853&showAllBusses=on,0,,America/New_York,,,0
821274,854,,PLEASANT ST + CARDINAL RD,,42.27852,-71.8475,,http://bustracker.therta.com/bustime/eta/eta.jsp?route=2&id=854&showAllBusses=on,0,,America/New_York,,,0
821275,855,,PLEASANT ST + MORELAND ST,,42.27803,-71.84368,,http://bustracker.therta.com/bustime/eta/eta.jsp?route=2&id=855&showAllBusses=on,0,,America/New_York,,,0
821276,856,,PLEASANT ST + MOORE AVE,,42.27746,-71.84203,,http://bustracker.therta.com/bustime/eta/eta.jsp?route=2&id=856&showAllBusses=on,0,,America/New_York,,,0
821277,857,,PLEASANT ST + MAY ST,,42.27725,-71.83986,,http://bustracker.therta.com/bustime/eta/eta.jsp?route=2&id=857&showAllBusses=on,0,,America/New_York,,,0
821279,859,,PLEASANT ST + KENILWORTH RD,,42.27687,-71.83649,,http://bustracker.therta.com/bustime/eta/eta.jsp?route=2&id=859&showAllBusses=on,0,,America/New_York,,,0
821280,847,,PLEASANT ST + KENSINGTON HEIGHTS,,42.27601,-71.83494,,http://bustracker.therta.com/bustime/eta/eta.jsp?route=2&id=847&showAllBusses=on,0,,America/New_York,,,0
821281,860,,PLEASANT ST + LENOX ST,,42.2750497312122,-71.8335832866751,,http://bustracker.therta.com/bustime/eta/eta.jsp?route=2&id=860&showAllBusses=on,0,,America/New_York,,,0
821282,861,,PLEASANT ST + SAINT ELMO RD,,42.2734880558756,-71.831384705255,,http://bustracker.therta.com/bustime/eta/eta.jsp?route=2&id=861&showAllBusses=on,0,,America/New_York,,,0
821283,882,,PLEASANT ST + HAWDEN LN,,42.2719870100197,-71.8301669794619,,http://bustracker.therta.com/bustime/eta/eta.jsp?route=2&id=882&showAllBusses=on,0,,America/New_York,,,0
821284,862,,PLEASANT ST + HOWLAND TER,,42.2713666792559,-71.8294516460189,,http://bustracker.therta.com/bustime/eta/eta.jsp?route=2&id=862&showAllBusses=on,0,,America/New_York,,,0
821286,864,,PLEASANT ST + JUNE ST,,42.2699862008992,-71.8258882914762,,http://bustracker.therta.com/bustime/eta/eta.jsp?route=2&id=864&showAllBusses=on,0,,America/New_York,,,0
821287,880,,PLEASANT ST + NEWTON SQUARE,,42.26924,-71.82502,,http://bustracker.therta.com/bustime/eta/eta.jsp?route=2&id=880&showAllBusses=on,0,,America/New_York,,,0
821288,1171,,642 PLEASANT ST,,42.26729,-71.82406,,http://bustracker.therta.com/bustime/eta/eta.jsp?route=2&id=1171&showAllBusses=on,0,,America/New_York,,,0
821289,865,,PLEASANT ST + COPLEY RD,,42.2661,-71.82347,,http://bustracker.therta.com/bustime/eta/eta.jsp?route=2&id=865&showAllBusses=on,0,,America/New_York,,,0
821290,866,,PLEASANT ST + NORMAN AVE,,42.2650407425333,-71.8222569617536,,http://bustracker.therta.com/bustime/eta/eta.jsp?route=2&id=866&showAllBusses=on,0,,America/New_York,,,0
821292,868,,PLEASANT ST + ABBOTT ST,,42.2640795986557,-71.8204181425263,,http://bustracker.therta.com/bustime/eta/eta.jsp?route=2&id=868&showAllBusses=on,0,,America/New_York,,,0
821293,869,,PLEASANT ST + PARK AVE,,42.2634856353027,-71.8192974341545,,http://bustracker.therta.com/bustime/eta/eta.jsp?route=2&id=869&showAllBusses=on,0,,America/New_York,,,0
821294,870,,PLEASANT ST + MASON ST,,42.2632963946746,-71.8178781500819,,http://bustracker.therta.com/bustime/eta/eta.jsp?route=2&id=870&showAllBusses=on,0,,America/New_York,,,0
821295,871,,PLEASANT ST + BELLEVUE ST,,42.2633574550447,-71.8162473036739,,http://bustracker.therta.com/bustime/eta/eta.jsp?route=2&id=871&showAllBusses=on,0,,America/New_York,,,0
821296,872,,PLEASANT ST + RUSSELL ST,,42.2637158716582,-71.8143578013768,,http://bustracker.therta.com/bustime/eta/eta.jsp?route=2&id=872&showAllBusses=on,0,,America/New_York,,,0
821297,874,,PLEASANT ST + HAWLEY ST,,42.2640084642157,-71.8119970447074,,http://bustracker.therta.com/bustime/eta/eta.jsp?route=2&id=874&showAllBusses=on,0,,America/New_York,,,0
821298,875,,PLEASANT ST + CROWN ST,,42.2638885627256,-71.8087225707506,,http://bustracker.therta.com/bustime/eta/eta.jsp?route=2&id=875&showAllBusses=on,0,,America/New_York,,,0
821299,876,,PLEASANT ST + OXFORD ST,,42.2638040339008,-71.8075357804922,,http://bustracker.therta.com/bustime/eta/eta.jsp?route=2&id=876&showAllBusses=on,0,,America/New_York,,,0
821300,877,,PLEASANT ST + IRVING ST,,42.2637112926264,-71.806187019031,,http://bustracker.therta.com/bustime/eta/eta.jsp?route=2&id=877&showAllBusses=on,0,,America/New_York,,,0
821301,878,,PLEASANT ST + CHESTNUT ST,,42.2636357100168,-71.8047795581373,,http://bustracker.therta.com/bustime/eta/eta.jsp?route=3&id=878&showAllBusses=on,0,,America/New_York,,,0
821302,812,,PLEASANT ST + LINDEN ST,,42.26382,-71.80635,,http://bustracker.therta.com/bustime/eta/eta.jsp?route=2&id=812&showAllBusses=on,0,,America/New_York,,,0
821303,813,,PLEASANT ST + ASHLAND ST,,42.2639,-71.80763,,http://bustracker.therta.com/bustime/eta/eta.jsp?route=2&id=813&showAllBusses=on,0,,America/New_York,,,0
821304,814,,PLEASANT ST + WEST ST,,42.26401,-71.80914,,http://bustracker.therta.com/bustime/eta/eta.jsp?route=2&id=814&showAllBusses=on,0,,America/New_York,,,0
821305,815,,PLEASANT ST + FRUIT ST,,42.26411,-71.81144,,http://bustracker.therta.com/bustime/eta/eta.jsp?route=2&id=815&showAllBusses=on,0,,America/New_York,,,0
821306,816,,PLEASANT ST + MERRICK ST,,42.26387,-71.81403,,http://bustracker.therta.com/bustime/eta/eta.jsp?route=2&id=816&showAllBusses=on,0,,America/New_York,,,0
821307,817,,PLEASANT ST + RUSSELL ST,,42.2637,-71.81504,,http://bustracker.therta.com/bustime/eta/eta.jsp?route=2&id=817&showAllBusses=on,0,,America/New_York,,,0
821308,1244,,ELM PARK TOWERS,,42.26347,-71.81647,,http://bustracker.therta.com/bustime/eta/eta.jsp?route=2&id=1244&showAllBusses=on,0,,America/New_York,,,0
821309,819,,PLEASANT ST + HUDSON ST,,42.26343,-71.81806,,http://bustracker.therta.com/bustime/eta/eta.jsp?route=2&id=819&showAllBusses=on,0,,America/New_York,,,0
821310,820,,PLEASANT ST + PARK AVE,,42.26369,-71.81928,,http://bustracker.therta.com/bustime/eta/eta.jsp?route=2&id=820&showAllBusses=on,0,,America/New_York,,,0
821311,821,,PLEASANT ST + FEDERAL PL,,42.26433,-71.82052,,http://bustracker.therta.com/bustime/eta/eta.jsp?route=2&id=821&showAllBusses=on,0,,America/New_York,,,0
821313,810,,PLEASANT ST + COPLEY RD,,42.26585,-71.82298,,http://bustracker.therta.com/bustime/eta/eta.jsp?route=2&id=810&showAllBusses=on,0,,America/New_York,,,0
821314,811,,PLEASANT ST + COPLEY RD,,42.26711,-71.82376,,http://bustracker.therta.com/bustime/eta/eta.jsp?route=2&id=811&showAllBusses=on,0,,America/New_York,,,0
821316,822,,PLEASANT ST + NEWTON SQUARE,,42.2695,-71.82508,,http://bustracker.therta.com/bustime/eta/eta.jsp?route=2&id=822&showAllBusses=on,0,,America/New_York,,,0
821318,824,,PLEASANT ST + GREENLEAF TER,,42.2706,-71.82778,,http://bustracker.therta.com/bustime/eta/eta.jsp?route=2&id=824&showAllBusses=on,0,,America/New_York,,,0
821319,825,,PLEASANT ST + ELMWOOD ST,,42.27148,-71.8294,,http://bustracker.therta.com/bustime/eta/eta.jsp?route=2&id=825&showAllBusses=on,0,,America/New_York,,,0
821321,826,,PLEASANT ST + INTERVALE RD,,42.27268,-71.83059,,http://bustracker.therta.com/bustime/eta/eta.jsp?route=2&id=826&showAllBusses=on,0,,America/New_York,,,0
821322,827,,PLEASANT ST + LENOX ST,,42.27488,-71.83311,,http://bustracker.therta.com/bustime/eta/eta.jsp?route=2&id=827&showAllBusses=on,0,,America/New_York,,,0
821323,828,,PLEASANT ST + BERWICK ST,,42.2761,-71.83493,,http://bustracker.therta.com/bustime/eta/eta.jsp?route=2&id=828&showAllBusses=on,0,,America/New_York,,,0
821324,829,,PLEASANT ST + KENILWORTH RD,,42.27692,-71.83638,,http://bustracker.therta.com/bustime/eta/eta.jsp?route=2&id=829&showAllBusses=on,0,,America/New_York,,,0
821325,830,,PLEASANT ST + FLAGG ST,,42.27742,-71.83826,,http://bustracker.therta.com/bustime/eta/eta.jsp?route=2&id=830&showAllBusses=on,0,,America/New_York,,,0
821326,831,,PLEASANT ST + GUILD RD,,42.27736,-71.84007,,http://bustracker.therta.com/bustime/eta/eta.jsp?route=2&id=831&showAllBusses=on,0,,America/New_York,,,0
821327,832,,PLEASANT ST + MOORE AVE,,42.27749,-71.84159,,http://bustracker.therta.com/bustime/eta/eta.jsp?route=2&id=832&showAllBusses=on,0,,America/New_York,,,0
821328,833,,PLEASANT ST + MORELAND ST,,42.27815,-71.84375,,http://bustracker.therta.com/bustime/eta/eta.jsp?route=2&id=833&showAllBusses=on,0,,America/New_York,,,0
821329,835,,PLEASANT ST + WRENTHAM RD,,42.27877,-71.84646,,http://bustracker.therta.com/bustime/eta/eta.jsp?route=2&id=835&showAllBusses=on,0,,America/New_York,,,0
821330,836,,PLEASANT ST + CHESTERFIELD RD,,42.2783529549401,-71.8488521930115,,http://bustracker.therta.com/bustime/eta/eta.jsp?route=2&id=836&showAllBusses=on,0,,America/New_York,,,0
821332,838,,PLEASANT ST + POMONA RD,,42.2781833288098,-71.8523142074934,,http://bustracker.therta.com/bustime/eta/eta.jsp?route=2&id=838&showAllBusses=on,0,,America/New_York,,,0
821333,1173,,PLEASANT ST + TATNUCK SQUARE,,42.2783205151152,-71.853324917193,,http://bustracker.therta.com/bustime/eta/eta.jsp?route=2&id=1173&showAllBusses=on,0,,America/New_York,,,0
821334,1255,,PLEASANT ST + SOUTH OLEANS ST,,42.27866,-71.85609,,http://bustracker.therta.com/bustime/eta/eta.jsp?route=6&id=1255&showAllBusses=on,0,,America/New_York,,,0
821335,4085,,MAIN ST + MILLBURY CENTER,,42.1915,-71.76052,,http://bustracker.therta.com/bustime/eta/eta.jsp?route=4&id=4085&showAllBusses=on,0,,America/New_York,,,0
821346,679,,MASSASOIT RD + TAMAR AVE,,42.23405,-71.76362,,,0,,America/New_York,,,0
821347,670,,MASSASOIT RD + BLITHEWOOD AVE,,42.2359,-71.76498,,,0,,America/New_York,,,0
821359,693,,MASSASOIT RD + HEYWOOD ST,,42.24973,-71.77936,,http://bustracker.therta.com/bustime/eta/eta.jsp?route=1&id=693&showAllBusses=on,0,,America/New_York,,,0
821360,294,,GRAFTON ST + RICE SQUARE,,42.25172,-71.78205,,http://bustracker.therta.com/bustime/eta/eta.jsp?route=5&id=294&showAllBusses=on,0,,America/New_York,,,0
821361,218,,DORCHESTER ST + ARTHUR ST,,42.25221,-71.78396,,http://bustracker.therta.com/bustime/eta/eta.jsp?route=1&id=218&showAllBusses=on,0,,America/New_York,,,0
821362,219,,DORCHESTER ST + HOUGHTON ST,,42.25208,-71.78646,,http://bustracker.therta.com/bustime/eta/eta.jsp?route=1&id=219&showAllBusses=on,0,,America/New_York,,,0
821363,221,,DORCHESTER ST + MENDON ST,,42.25198,-71.78783,,http://bustracker.therta.com/bustime/eta/eta.jsp?route=1&id=221&showAllBusses=on,0,,America/New_York,,,0
821364,222,,DORCHESTER ST + BARCLAY ST,,42.25191,-71.78906,,http://bustracker.therta.com/bustime/eta/eta.jsp?route=1&id=222&showAllBusses=on,0,,America/New_York,,,0
821365,223,,DORCHESTER ST + CHAPIN ST,,42.25179,-71.79101,,http://bustracker.therta.com/bustime/eta/eta.jsp?route=1&id=223&showAllBusses=on,0,,America/New_York,,,0
821366,224,,DORCHESTER ST + PROVIDENCE ST,,42.25174,-71.79232,,http://bustracker.therta.com/bustime/eta/eta.jsp?route=1&id=224&showAllBusses=on,0,,America/New_York,,,0
821372,214,,DORCHESTER ST + PROVIDENCE ST,,42.251663457533,-71.7922483346778,,http://bustracker.therta.com/bustime/eta/eta.jsp?route=1&id=214&showAllBusses=on,0,,America/New_York,,,0
821373,209,,DORCHESTER ST + CHAPIN ST,,42.2517548995657,-71.790628094763,,http://bustracker.therta.com/bustime/eta/eta.jsp?route=1&id=209&showAllBusses=on,0,,America/New_York,,,0
821374,210,,DORCHESTER ST + SHANNON ST,,42.2518397682027,-71.7890677922973,,http://bustracker.therta.com/bustime/eta/eta.jsp?route=1&id=210&showAllBusses=on,0,,America/New_York,,,0
821375,211,,DORCHESTER ST + RICE LN,,42.2518871300142,-71.7882313749345,,http://bustracker.therta.com/bustime/eta/eta.jsp?route=1&id=211&showAllBusses=on,0,,America/New_York,,,0
821376,215,,DORCHESTER ST + CUTLER ST,,42.2519727742719,-71.7866616999517,,http://bustracker.therta.com/bustime/eta/eta.jsp?route=1&id=215&showAllBusses=on,0,,America/New_York,,,0
821378,217,,DORCHESTER ST + ARTHUR ST,,42.2521333035683,-71.7838138689256,,http://bustracker.therta.com/bustime/eta/eta.jsp?route=1&id=217&showAllBusses=on,0,,America/New_York,,,0
821379,1181,,GRAFTON ST + RICE SQUARE,,42.2517107331156,-71.7821680244653,,http://bustracker.therta.com/bustime/eta/eta.jsp?route=5&id=1181&showAllBusses=on,0,,America/New_York,,,0
821381,652,,MASSASOIT RD + HEYWOOD ST,,42.249727417441,-71.7796300713552,,http://bustracker.therta.com/bustime/eta/eta.jsp?route=1&id=652&showAllBusses=on,0,,America/New_York,,,0
821393,651,,MASSASOIT RD + BLITHEWOOD TER,,42.23616,-71.76534,,,0,,America/New_York,,,0
821394,664,,MASSASOIT RD + MISCOE RD,,42.23535,-71.76465,,,0,,America/New_York,,,0
821396,666,,414 MASSASOIT RD,,42.23302,-71.76341,,,0,,America/New_York,,,0
821408,1153,,MOUNTAIN VILLAGE,,42.3181,-71.77875,,http://bustracker.therta.com/bustime/eta/eta.jsp?route=23&id=1153&showAllBusses=on,0,,America/New_York,,,0
821409,751,,MOUNTAIN ST EAST + MOSQUE,,42.31508,-71.77286,,http://bustracker.therta.com/bustime/eta/eta.jsp?route=23&id=751&showAllBusses=on,0,,America/New_York,,,0
821410,1155,,100 CENTURY DR,,42.31411,-71.76991,,http://bustracker.therta.com/bustime/eta/eta.jsp?route=23&id=1155&showAllBusses=on,0,,America/New_York,,,0
821411,1167,,CENTURY DR + RED CROSS,,42.31572,-71.76923,,http://bustracker.therta.com/bustime/eta/eta.jsp?route=23&id=1167&showAllBusses=on,0,,America/New_York,,,0
821412,1168,,CLARK ST + TEAMSTER VILLAGE,,42.31304,-71.77355,,http://bustracker.therta.com/bustime/eta/eta.jsp?route=23&id=1168&showAllBusses=on,0,,America/New_York,,,0
821413,184,,TACOMA ST + CLARK ST,,42.31204,-71.77575,,http://bustracker.therta.com/bustime/eta/eta.jsp?route=23&id=184&showAllBusses=on,0,,America/New_York,,,0
821414,185,,CLARK ST + HARLEY DR,,42.31153,-71.77976,,http://bustracker.therta.com/bustime/eta/eta.jsp?route=23&id=185&showAllBusses=on,0,,America/New_York,,,0
821415,986,,ST NICHOLAS AVE + CLARK ST,,42.31047,-71.7815,,http://bustracker.therta.com/bustime/eta/eta.jsp?route=23&id=986&showAllBusses=on,0,,America/New_York,,,0
821416,987,,194 ST NICHOLAS AVE,,42.30939,-71.7807,,http://bustracker.therta.com/bustime/eta/eta.jsp?route=23&id=987&showAllBusses=on,0,,America/New_York,,,0
821417,988,,ST NICHOLAS AVE + ONTARIO ST,,42.30831,-71.77988,,http://bustracker.therta.com/bustime/eta/eta.jsp?route=23&id=988&showAllBusses=on,0,,America/New_York,,,0
821418,989,,ST NICHOLAS AVE + SQUANTUM ST,,42.30685,-71.77878,,http://bustracker.therta.com/bustime/eta/eta.jsp?route=23&id=989&showAllBusses=on,0,,America/New_York,,,0
821419,990,,ST NICHOLAS AVE + ONANDAGA ST,,42.3056077097108,-71.7778915739462,,http://bustracker.therta.com/bustime/eta/eta.jsp?route=23&id=990&showAllBusses=on,0,,America/New_York,,,0
821420,991,,ST NICHOLAS AVE + HILDA ST,,42.30441,-71.77695,,http://bustracker.therta.com/bustime/eta/eta.jsp?route=23&id=991&showAllBusses=on,0,,America/New_York,,,0
821421,992,,5 ST NICHOLAS AVE,,42.30328,-71.7753,,http://bustracker.therta.com/bustime/eta/eta.jsp?route=23&id=992&showAllBusses=on,0,,America/New_York,,,0
821422,201,,COUNTRY CLUB BLVD + ERIE AVE,,42.303,-71.77487,,http://bustracker.therta.com/bustime/eta/eta.jsp?route=23&id=201&showAllBusses=on,0,,America/New_York,,,0
821423,202,,COUNTRY CLUB BLVD + REC CENTER,,42.3019,-71.77636,,http://bustracker.therta.com/bustime/eta/eta.jsp?route=23&id=202&showAllBusses=on,0,,America/New_York,,,0
821424,203,,111 COUNTRY CLUB BLVD,,42.2999,-71.77689,,http://bustracker.therta.com/bustime/eta/eta.jsp?route=23&id=203&showAllBusses=on,0,,America/New_York,,,0
821425,204,,91 COUNTRY CLUB BLVD,,42.29926,-71.77635,,http://bustracker.therta.com/bustime/eta/eta.jsp?route=23&id=204&showAllBusses=on,0,,America/New_York,,,0
821426,205,,COUNTRY CLUB BLVD + LINCOLN VILLAGE,,42.2977370244777,-71.7754372025705,,http://bustracker.therta.com/bustime/eta/eta.jsp?route=23&id=205&showAllBusses=on,0,,America/New_York,,,0
821427,206,,COUNTRY CLUB BLVD + PLAZA ENTRANCE,,42.2963727569743,-71.7751332213636,,http://bustracker.therta.com/bustime/eta/eta.jsp?route=23&id=206&showAllBusses=on,0,,America/New_York,,,0
821428,207,,COUNTRY CLUB BLVD + LINCOLN ST,,42.29513,-71.77499,,http://bustracker.therta.com/bustime/eta/eta.jsp?route=23&id=207&showAllBusses=on,0,,America/New_York,,,0
821429,541,,LINCOLN ST + GOLDWAITHE RD,,42.29311,-71.77825,,http://bustracker.therta.com/bustime/eta/eta.jsp?route=26&id=541&showAllBusses=on,0,,America/New_York,,,0
821430,542,,LINCOLN ST + BEVERLY RD,,42.29224,-71.78011,,http://bustracker.therta.com/bustime/eta/eta.jsp?route=26&id=542&showAllBusses=on,0,,America/New_York,,,0
821431,543,,LINCOLN ST + HANOVER INSURANCE,,42.29161,-71.78196,,http://bustracker.therta.com/bustime/eta/eta.jsp?route=26&id=543&showAllBusses=on,0,,America/New_York,,,0
821432,544,,LINCOLN ST + ORAN ST,,42.28933,-71.78674,,http://bustracker.therta.com/bustime/eta/eta.jsp?route=26&id=544&showAllBusses=on,0,,America/New_York,,,0
821434,546,,LINCOLN ST + FROTHINGHAM RD,,42.28755,-71.78928,,http://bustracker.therta.com/bustime/eta/eta.jsp?route=26&id=546&showAllBusses=on,0,,America/New_York,,,0
821435,551,,LINCOLN ST + ROUTE 290 RAMP,,42.27399,-71.79757,,http://bustracker.therta.com/bustime/eta/eta.jsp?route=26&id=551&showAllBusses=on,0,,America/New_York,,,0
821436,553,,LINCOLN ST + LINCOLN SQUARE,,42.2719,-71.79884,,http://bustracker.therta.com/bustime/eta/eta.jsp?route=30&id=553&showAllBusses=on,0,,America/New_York,,,0
821437,569,,MAJOR TAYLOR BLVD + HIGHLAND ST,,42.27085,-71.79891,,http://bustracker.therta.com/bustime/eta/eta.jsp?route=30&id=569&showAllBusses=on,0,,America/New_York,,,0
821438,570,,MAJOR TAYLOR BLVD + MCPHS,,42.2698,-71.79888,,http://bustracker.therta.com/bustime/eta/eta.jsp?route=30&id=570&showAllBusses=on,0,,America/New_York,,,0
821439,649,,MAIN ST + GEORGE ST,,42.26764,-71.80076,,,0,,America/New_York,,,0
821440,573,,MAIN ST + THOMAS ST,,42.26819,-71.80044,,http://bustracker.therta.com/bustime/eta/eta.jsp?route=40&id=573&showAllBusses=on,0,,America/New_York,,,0
821441,566,,MAJOR TAYLOR BLVD + MCPHS,,42.26982,-71.79858,,http://bustracker.therta.com/bustime/eta/eta.jsp?route=30&id=566&showAllBusses=on,0,,America/New_York,,,0
821442,567,,MAJOR TAYLOR BLVD + LINCOLN SQUARE,,42.27095,-71.79859,,http://bustracker.therta.com/bustime/eta/eta.jsp?route=30&id=567&showAllBusses=on,0,,America/New_York,,,0
821443,516,,LINCOLN ST + OLD LINCOLN ST,,42.27226,-71.79851,,http://bustracker.therta.com/bustime/eta/eta.jsp?route=26&id=516&showAllBusses=on,0,,America/New_York,,,0
821444,518,,LINCOLN ST + OLD LINCOLN ST,,42.27371,-71.79753,,http://bustracker.therta.com/bustime/eta/eta.jsp?route=26&id=518&showAllBusses=on,0,,America/New_York,,,0
821445,526,,LINCOLN ST + BUCKINGHAM ST,,42.28748,-71.78918,,http://bustracker.therta.com/bustime/eta/eta.jsp?route=26&id=526&showAllBusses=on,0,,America/New_York,,,0
821446,527,,LINCOLN ST + GORHAM ST,,42.28842,-71.78781,,http://bustracker.therta.com/bustime/eta/eta.jsp?route=26&id=527&showAllBusses=on,0,,America/New_York,,,0
821447,528,,LINCOLN ST + WAKEFIELD ST,,42.28938,-71.78642,,http://bustracker.therta.com/bustime/eta/eta.jsp?route=26&id=528&showAllBusses=on,0,,America/New_York,,,0
821448,529,,LINCOLN ST + HANOVER INSURANCE,,42.29133,-71.78218,,http://bustracker.therta.com/bustime/eta/eta.jsp?route=26&id=529&showAllBusses=on,0,,America/New_York,,,0
821449,530,,LINCOLN ST + MARSH AVE,,42.29208,-71.78021,,http://bustracker.therta.com/bustime/eta/eta.jsp?route=26&id=530&showAllBusses=on,0,,America/New_York,,,0
821450,531,,LINCOLN ST + LINCOLN PLAZA,,42.29295,-71.7783,,http://bustracker.therta.com/bustime/eta/eta.jsp?route=26&id=531&showAllBusses=on,0,,America/New_York,,,0
821451,194,,COUNTRY CLUB BLVD + LINCOLN ST,,42.29508,-71.77464,,http://bustracker.therta.com/bustime/eta/eta.jsp?route=23&id=194&showAllBusses=on,0,,America/New_York,,,0
821452,195,,COUNTRY CLUB BLVD + HOTEL ENTRANCE,,42.29615,-71.77483,,http://bustracker.therta.com/bustime/eta/eta.jsp?route=23&id=195&showAllBusses=on,0,,America/New_York,,,0
821453,196,,COUNTRY CLUB BLVD + LINCOLN VILLAGE,,42.29757,-71.77503,,http://bustracker.therta.com/bustime/eta/eta.jsp?route=23&id=196&showAllBusses=on,0,,America/New_York,,,0
821454,197,,126 COUNTRY CLUB BLVD,,42.29929,-71.77626,,http://bustracker.therta.com/bustime/eta/eta.jsp?route=23&id=197&showAllBusses=on,0,,America/New_York,,,0
821455,198,,132 COUNTRY CLUB BLVD,,42.29994,-71.77679,,http://bustracker.therta.com/bustime/eta/eta.jsp?route=23&id=198&showAllBusses=on,0,,America/New_York,,,0
